[{"qualifier": "LOCATION", "title": "Cape Breton Highlands National Park of Canada, Victoria; Inverness, Nova Scotia (Conservation area)", "geometry": {"type": "Point", "coordinates": [-60.641666, 46.741669]}, "locId": 47, "bbox": [-60.963977, 46.5938957, -60.316736, 46.86276], "type": "ca.gc.nrcan.geoloc.data.model.Geoname"}, {"geometry": {"type": "Point", "coordinates": [-60.8705029, 46.73217]}, "locId": 48, "type": "ca.gc.nrcan.geoloc.data.model.Street", "qualifier": "INTERPOLATED_CENTROID", "title": "Cabot Trail, Cape Breton Highlands National Park, Nova Scotia"}, {"geometry": {"type": "Point", "coordinates": [-60.4641907, 46.863263]}, "locId": 49, "type": "ca.gc.nrcan.geoloc.data.model.Street", "qualifier": "INTERPOLATED_CENTROID", "title": "White Point Road, Cape Breton Highlands National Park, Nova Scotia"}, {"geometry": {"type": "Point", "coordinates": [-60.4649606, 46.8629137]}, "locId": 50, "type": "ca.gc.nrcan.geoloc.data.model.Intersection", "qualifier": "LOCATION", "title": "Cabot Trail,White Point Road, Cape Breton Highlands National Park, Nova Scotia"}, {"qualifier": "LOCATION", "title": "Kejimkujik National Park Seaside Adjunct, Queens, Nova Scotia (Conservation area)", "geometry": {"type": "Point", "coordinates": [-64.837029, 43.866051]}, "locId": 51, "bbox": [-64.8563995362434, 43.838847870138, -64.8174884637566, 43.892818729862], "type": "ca.gc.nrcan.geoloc.data.model.Geoname"}, {"qualifier": "LOCATION", "title": "Parc national du Canada Kejimkujik, Annapolis; Queens; Digby, Nova Scotia (Conservation area)", "geometry": {"type": "Point", "coordinates": [-65.293053, 44.386112]}, "locId": 52, "bbox": [-65.451322, 43.8129355, -64.782264, 44.476029], "type": "ca.gc.nrcan.geoloc.data.model.Geoname"}, {"qualifier": "LOCATION", "title": "Kejimkujik National Park of Canada, Annapolis; Queens; Digby, Nova Scotia (Conservation area)", "geometry": {"type": "Point", "coordinates": [-65.293053, 44.386112]}, "locId": 53, "bbox": [-65.451322, 43.8129355, -64.782264, 44.476029], "type": "ca.gc.nrcan.geoloc.data.model.Geoname"}, {"qualifier": "LOCATION", "title": "Annexe c\u00f4ti\u00e8re du parc national Kejimkujik, Queens, Nova Scotia (Conservation area)", "geometry": {"type": "Point", "coordinates": [-64.837029, 43.866051]}, "locId": 54, "bbox": [-64.8563995362434, 43.838847870138, -64.8174884637566, 43.892818729862], "type": "ca.gc.nrcan.geoloc.data.model.Geoname"}, {"geometry": {"type": "Point", "coordinates": [-65.2012977, 44.4020539]}, "locId": 55, "type": "ca.gc.nrcan.geoloc.data.model.Street", "qualifier": "INTERPOLATED_CENTROID", "title": "Kejimkujik Road, Kejimkujik National Park of Canada, Nova Scotia"}, {"geometry": {"type": "Point", "coordinates": [-65.2118307, 44.4347627]}, "locId": 56, "type": "ca.gc.nrcan.geoloc.data.model.Street", "qualifier": "INTERPOLATED_CENTROID", "title": "Compound Road, Kejimkujik National Park of Canada, Nova Scotia"}, {"geometry": {"type": "Point", "coordinates": [-65.2438075, 44.4208008]}, "locId": 57, "type": "ca.gc.nrcan.geoloc.data.model.Street", "qualifier": "INTERPOLATED_CENTROID", "title": "Main Parkway, Kejimkujik National Park of Canada, Nova Scotia"}, {"geometry": {"type": "Point", "coordinates": [-65.2434883, 44.4158827]}, "locId": 58, "type": "ca.gc.nrcan.geoloc.data.model.Street", "qualifier": "INTERPOLATED_CENTROID", "title": "Jeremys Bay Campground Road, Kejimkujik National Park of Canada, Nova Scotia"}, {"geometry": {"type": "Point", "coordinates": [-65.1952541, 44.4351117]}, "locId": 59, "type": "ca.gc.nrcan.geoloc.data.model.Street", "qualifier": "INTERPOLATED_CENTROID", "title": "Warden Housing Road, Kejimkujik National Park of Canada, Nova Scotia"}, {"geometry": {"type": "Point", "coordinates": [-65.2492906, 44.4320659]}, "locId": 60, "type": "ca.gc.nrcan.geoloc.data.model.Street", "qualifier": "INTERPOLATED_CENTROID", "title": "Big Dam Road, Kejimkujik National Park of Canada, Nova Scotia"}, {"geometry": {"type": "Point", "coordinates": [-65.209792, 44.387971]}, "locId": 61, "type": "ca.gc.nrcan.geoloc.data.model.Street", "qualifier": "INTERPOLATED_CENTROID", "title": "Minards Cabin Road, Kejimkujik National Park of Canada, Nova Scotia"}, {"geometry": {"type": "Point", "coordinates": [-65.1970013, 44.4362763]}, "locId": 62, "type": "ca.gc.nrcan.geoloc.data.model.Intersection", "qualifier": "LOCATION", "title": "Main Parkway,Warden Housing Road, Kejimkujik National Park of Canada, Nova Scotia"}, {"geometry": {"type": "Point", "coordinates": [-65.194991, 44.4372522]}, "locId": 63, "type": "ca.gc.nrcan.geoloc.data.model.Intersection", "qualifier": "LOCATION", "title": "Highway 8,Main Parkway, Maitland Bridge,Kejimkujik National Park of Canada, Nova Scotia"}, {"geometry": {"type": "Point", "coordinates": [-65.2120472, 44.4360218]}, "locId": 64, "type": "ca.gc.nrcan.geoloc.data.model.Intersection", "qualifier": "LOCATION", "title": "Compound Road,Main Parkway, Kejimkujik National Park of Canada, Nova Scotia"}, {"geometry": {"type": "Point", "coordinates": [-65.2446957, 44.4243292]}, "locId": 65, "type": "ca.gc.nrcan.geoloc.data.model.Intersection", "qualifier": "LOCATION", "title": "Jeremys Bay Campground Road,Main Parkway, Kejimkujik National Park of Canada, Nova Scotia"}, {"geometry": {"type": "Point", "coordinates": [-65.2532939, 44.4239132]}, "locId": 66, "type": "ca.gc.nrcan.geoloc.data.model.Intersection", "qualifier": "LOCATION", "title": "Big Dam Road,Jeremys Bay Campground Road, Kejimkujik National Park of Canada, Nova Scotia"}, {"qualifier": "LOCATION", "title": "Shelburne River, Queens; Digby, Nova Scotia (River)", "geometry": {"type": "Point", "coordinates": [-65.212479, 44.212643]}, "locId": 67, "bbox": [-65.55015074, 44.20204852, -65.21628571, 44.30468738], "type": "ca.gc.nrcan.geoloc.data.model.Geoname"}, {"qualifier": "LOCATION", "title": "Shelburne River Wilderness Area, Queens, Nova Scotia (Conservation area)", "geometry": {"type": "Point", "coordinates": [-65.260986, 44.241745]}, "locId": 68, "bbox": [-65.2804434542783, 44.214681570138, -65.2417785457217, 44.268652429862], "type": "ca.gc.nrcan.geoloc.data.model.Geoname"}, {"qualifier": "LOCATION", "title": "Amherst Shore Provincial Park, Cumberland, Nova Scotia (Conservation area)", "geometry": {"type": "Point", "coordinates": [-63.8867, 45.950001]}, "locId": 69, "bbox": [-63.9318175874926, 45.923014570138, -63.8942924125074, 45.976985429862], "type": "ca.gc.nrcan.geoloc.data.model.Geoname"}, {"qualifier": "LOCATION", "title": "Annapolis Basin Look Off Provincial Park, Digby, Nova Scotia (Conservation area)", "geometry": {"type": "Point", "coordinates": [-65.75631, 44.639095]}, "locId": 70, "bbox": [-65.7761451880458, 44.612736770138, -65.7377428119542, 44.666707629862], "type": "ca.gc.nrcan.geoloc.data.model.Geoname"}, {"qualifier": "LOCATION", "title": "Anthony Provincial Park, Hants, Nova Scotia (Conservation area)", "geometry": {"type": "Point", "coordinates": [-63.605717, 45.315403]}, "locId": 71, "bbox": [-63.6245322931085, 45.288292370138, -63.5865797068915, 45.342263229862], "type": "ca.gc.nrcan.geoloc.data.model.Geoname"}, {"qualifier": "LOCATION", "title": "Arisaig Provincial Park, Antigonish, Nova Scotia (Conservation area)", "geometry": {"type": "Point", "coordinates": [-62.167507, 45.755669]}, "locId": 72, "bbox": [-62.1863283011805, 45.728570070138, -62.1486716988195, 45.782540929862], "type": "ca.gc.nrcan.geoloc.data.model.Geoname"}, {"qualifier": "LOCATION", "title": "Barachois Pond Provincial Park, St. George's, Newfoundland and Labrador (Conservation area)", "geometry": {"type": "Point", "coordinates": [-58.253056, 48.472221]}, "locId": 73, "bbox": [-58.326996, 48.4602447, -58.204675, 48.4969305], "type": "ca.gc.nrcan.geoloc.data.model.Geoname"}, {"qualifier": "LOCATION", "title": "Barachois Provincial Park, Nova Scotia (Conservation area)", "geometry": {"type": "Point", "coordinates": [-60.443138, 46.143143]}, "locId": 74, "bbox": [-60.4617531294418, 46.116070070138, -60.4243588705582, 46.170040929862], "type": "ca.gc.nrcan.geoloc.data.model.Geoname"}, {"qualifier": "LOCATION", "title": "Battery Provincial Park, Richmond, Nova Scotia (Conservation area)", "geometry": {"type": "Point", "coordinates": [-60.865894, 45.649223]}, "locId": 75, "bbox": [-60.8846971641815, 45.622181270138, -60.8469688358185, 45.676152129862], "type": "ca.gc.nrcan.geoloc.data.model.Geoname"}, {"qualifier": "LOCATION", "title": "Bayswater Beach Provincial Park, Lunenburg, Nova Scotia (Conservation area)", "geometry": {"type": "Point", "coordinates": [-64.066162, 44.502636]}, "locId": 76, "bbox": [-64.0861907280782, 44.474958970138, -64.0476972719218, 44.528929829862], "type": "ca.gc.nrcan.geoloc.data.model.Geoname"}, {"qualifier": "LOCATION", "title": "Beaver Mountain Provincial Park, Antigonish; Pictou, Nova Scotia (Conservation area)", "geometry": {"type": "Point", "coordinates": [-62.163761, 45.56451]}, "locId": 77, "bbox": [-62.1825036770258, 45.537458970138, -62.1447183229742, 45.591429829862], "type": "ca.gc.nrcan.geoloc.data.model.Geoname"}, {"qualifier": "LOCATION", "title": "Ben Eoin Provincial Park, Cape Breton, Nova Scotia (Conservation area)", "geometry": {"type": "Point", "coordinates": [-60.459805, 45.962128]}, "locId": 78, "bbox": [-60.4784805437244, 45.934959070138, -60.4409634562756, 45.988929929862], "type": "ca.gc.nrcan.geoloc.data.model.Geoname"}, {"qualifier": "LOCATION", "title": "Blomidon Provincial Park, Kings, Nova Scotia (Conservation area)", "geometry": {"type": "Point", "coordinates": [-64.337318, 45.26516]}, "locId": 79, "bbox": [-64.356215122022, 45.238014570138, -64.318228877978, 45.291985429862], "type": "ca.gc.nrcan.geoloc.data.model.Geoname"}, {"geometry": {"type": "Point", "coordinates": [-64.3515765, 45.2621026]}, "locId": 80, "type": "ca.gc.nrcan.geoloc.data.model.Street", "qualifier": "INTERPOLATED_CENTROID", "title": "Pereaux Road, Blomidon Provincial Park, Nova Scotia"}, {"geometry": {"type": "Point", "coordinates": [-64.3515765, 45.2621026]}, "locId": 81, "type": "ca.gc.nrcan.geoloc.data.model.Street", "qualifier": "INTERPOLATED_CENTROID", "title": "Pereau Road, Blomidon Provincial Park, Nova Scotia"}, {"qualifier": "LOCATION", "title": "Boylston Provincial Park, Guysborough, Nova Scotia (Conservation area)", "geometry": {"type": "Point", "coordinates": [-61.528847, 45.423389]}, "locId": 82, "bbox": [-61.5475510754938, 45.396347870138, -61.5096709245062, 45.450318729862], "type": "ca.gc.nrcan.geoloc.data.model.Geoname"}, {"qualifier": "LOCATION", "title": "Camerons Brook Provincial Park, Queens, Nova Scotia (Conservation area)", "geometry": {"type": "Point", "coordinates": [-64.954742, 44.333569]}, "locId": 83, "bbox": [-64.9743019423399, 44.307458970138, -64.93569805766, 44.361429829862], "type": "ca.gc.nrcan.geoloc.data.model.Geoname"}, {"qualifier": "LOCATION", "title": "Cape Chignecto Provincial Park, Cumberland, Nova Scotia (Conservation area)", "geometry": {"type": "Point", "coordinates": [-64.909065, 45.350704]}, "locId": 84, "bbox": [-64.944457, 45.3294269, -64.815257, 45.4485327], "type": "ca.gc.nrcan.geoloc.data.model.Geoname"}, {"geometry": {"type": "Point", "coordinates": [-64.8327698, 45.3764942]}, "locId": 85, "type": "ca.gc.nrcan.geoloc.data.model.Street", "qualifier": "INTERPOLATED_CENTROID", "title": "Eatonville Road, Cape Chignecto Provincial Park, Nova Scotia"}, {"geometry": {"type": "Point", "coordinates": [-64.8935742, 45.4273368]}, "locId": 86, "type": "ca.gc.nrcan.geoloc.data.model.Intersection", "qualifier": "LOCATION", "title": "Apple River Road,Eatonville Road, Spicers Cove,Cape Chignecto Provincial Park, Nova Scotia"}, {"qualifier": "LOCATION", "title": "Cape Smokey Provincial Park, Victoria, Nova Scotia (Conservation area)", "geometry": {"type": "Point", "coordinates": [-60.381165, 46.59391]}, "locId": 87, "bbox": [-60.3996544429783, 46.566903470138, -60.3625675570217, 46.620874329862], "type": "ca.gc.nrcan.geoloc.data.model.Geoname"}, {"qualifier": "LOCATION", "title": "Card Lake Provincial Park, Lunenburg, Nova Scotia (Conservation area)", "geometry": {"type": "Point", "coordinates": [-64.264481, 44.719799]}, "locId": 88, "bbox": [-64.2836186944823, 44.692736770138, -64.2452693055177, 44.746707629862], "type": "ca.gc.nrcan.geoloc.data.model.Geoname"}, {"qualifier": "LOCATION", "title": "Caribou-Munroes Island Provincial Park, Pictou, Nova Scotia (Conservation area)", "geometry": {"type": "Point", "coordinates": [-62.654213, 45.721588]}, "locId": 89, "bbox": [-62.6730068255769, 45.694403570138, -62.6353271744231, 45.748374429862], "type": "ca.gc.nrcan.geoloc.data.model.Geoname"}, {"qualifier": "LOCATION", "title": "Central Grove Provincial Park, Digby, Nova Scotia (Conservation area)", "geometry": {"type": "Point", "coordinates": [-66.275604, 44.334705]}, "locId": 90, "bbox": [-66.294857850969, 44.307736570138, -66.256254149031, 44.361707429862], "type": "ca.gc.nrcan.geoloc.data.model.Geoname"}, {"qualifier": "LOCATION", "title": "Clairmont Provincial Park, Kings, Nova Scotia (Conservation area)", "geometry": {"type": "Point", "coordinates": [-64.911064, 45.009064]}, "locId": 91, "bbox": [-64.9299116198918, 44.981903470138, -64.8917543801082, 45.035874329862], "type": "ca.gc.nrcan.geoloc.data.model.Geoname"}, {"qualifier": "LOCATION", "title": "Clam Harbour Beach Provincial Park, Halifax, Nova Scotia (Conservation area)", "geometry": {"type": "Point", "coordinates": [-62.891361, 44.731514]}, "locId": 92, "bbox": [-62.9102818277021, 44.704403470138, -62.8719401722979, 44.758374329862], "type": "ca.gc.nrcan.geoloc.data.model.Geoname"}, {"qualifier": "LOCATION", "title": "Cleveland Beach Provincial Park, Halifax, Nova Scotia (Conservation area)", "geometry": {"type": "Point", "coordinates": [-63.996376, 44.650009]}, "locId": 93, "bbox": [-64.0189193267204, 44.624403470138, -63.9805246732796, 44.678374329862], "type": "ca.gc.nrcan.geoloc.data.model.Geoname"}, {"qualifier": "LOCATION", "title": "Coldbrook Provincial Park, Kings, Nova Scotia (Conservation area)", "geometry": {"type": "Point", "coordinates": [-64.57354, 45.068127]}, "locId": 94, "bbox": [-64.592391902001, 45.041070170138, -64.5542740979991, 45.095041029862], "type": "ca.gc.nrcan.geoloc.data.model.Geoname"}, {"qualifier": "LOCATION", "title": "Dalem Lake Provincial Park, Victoria, Nova Scotia (Conservation area)", "geometry": {"type": "Point", "coordinates": [-60.423512, 46.250488]}, "locId": 95, "bbox": [-60.445049399041, 46.224125670138, -60.407728600959, 46.278096529862], "type": "ca.gc.nrcan.geoloc.data.model.Geoname"}, {"qualifier": "LOCATION", "title": "Dollar Lake Provincial Park, Halifax, Nova Scotia (Conservation area)", "geometry": {"type": "Point", "coordinates": [-63.320305, 44.92926]}, "locId": 96, "bbox": [-63.3393831559284, 44.902181270138, -63.3011728440716, 44.956152129862], "type": "ca.gc.nrcan.geoloc.data.model.Geoname"}, {"qualifier": "LOCATION", "title": "Dominion Beach Provincial Park, Cape Breton, Nova Scotia (Conservation area)", "geometry": {"type": "Point", "coordinates": [-60.039658, 46.220146]}, "locId": 97, "bbox": [-60.0581149811761, 46.193014570138, -60.0207730188239, 46.246985429862], "type": "ca.gc.nrcan.geoloc.data.model.Geoname"}, {"qualifier": "LOCATION", "title": "Big East River Provincial Park, Muskoka, Ontario (Conservation area)", "geometry": {"type": "Point", "coordinates": [-79.082848, 45.467934]}, "locId": 98, "bbox": [-79.21894, 45.3697065, -78.916391, 45.5278979], "type": "ca.gc.nrcan.geoloc.data.model.Geoname"}, {"qualifier": "LOCATION", "title": "East English River Provincial Park, Ontario (Conservation area)", "geometry": {"type": "Point", "coordinates": [-91.487, 49.774002]}, "locId": 99, "bbox": [-91.77133, 49.6077139, -91.329738, 49.9340569], "type": "ca.gc.nrcan.geoloc.data.model.Geoname"}, {"qualifier": "LOCATION", "title": "East River Provincial Park, Lunenburg, Nova Scotia (Conservation area)", "geometry": {"type": "Point", "coordinates": [-64.172165, 44.588409]}, "locId": 100, "bbox": [-64.1900510948909, 44.561625670138, -64.1516149051091, 44.615596529862], "type": "ca.gc.nrcan.geoloc.data.model.Geoname"}, {"qualifier": "LOCATION", "title": "Ellenwood Lake Provincial Park, Yarmouth, Nova Scotia (Conservation area)", "geometry": {"type": "Point", "coordinates": [-65.997055, 43.927349]}, "locId": 101, "bbox": [-66.0163794890228, 43.900236770138, -65.9775085109772, 43.954207629862], "type": "ca.gc.nrcan.geoloc.data.model.Geoname"}, {"qualifier": "LOCATION", "title": "Falls Lake Provincial Park, Hants, Nova Scotia (Conservation area)", "geometry": {"type": "Point", "coordinates": [-64.240204, 44.841976]}, "locId": 102, "bbox": [-64.2583017918033, 44.813014570138, -64.2200322081967, 44.866985429862], "type": "ca.gc.nrcan.geoloc.data.model.Geoname"}, {"geometry": {"type": "Point", "coordinates": [-125.3335919, 50.0400436]}, "locId": 103, "type": "ca.gc.nrcan.geoloc.data.model.Intersection", "qualifier": "LOCATION", "title": "Brewster Lake Road,Elk Falls Provincial Pk, Campbell River, British Columbia"}, {"qualifier": "LOCATION", "title": "Fancy Lake Provincial Park, Lunenburg, Nova Scotia (Conservation area)", "geometry": {"type": "Point", "coordinates": [-64.532066, 44.328686]}, "locId": 104, "bbox": [-64.5537495991118, 44.296347970138, -64.5151384008882, 44.350318829862], "type": "ca.gc.nrcan.geoloc.data.model.Geoname"}, {"qualifier": "LOCATION", "title": "Five Islands Provincial Park, Colchester, Nova Scotia (Conservation area)", "geometry": {"type": "Point", "coordinates": [-64.054237, 45.393795]}, "locId": 105, "bbox": [-64.0731170443849, 45.366625670138, -64.0352169556151, 45.420596529862], "type": "ca.gc.nrcan.geoloc.data.model.Geoname"}, {"qualifier": "LOCATION", "title": "Fox Harbour Provincial Park, Cumberland, Nova Scotia (Conservation area)", "geometry": {"type": "Point", "coordinates": [-63.432571, 45.835121]}, "locId": 106, "bbox": [-63.4507460416849, 45.806347870138, -63.4131419583151, 45.860318729862], "type": "ca.gc.nrcan.geoloc.data.model.Geoname"}, {"qualifier": "LOCATION", "title": "Glenwood Provincial Park, Restigouche, New Brunswick (Conservation area)", "geometry": {"type": "Point", "coordinates": [-67, 47.849998]}, "locId": 107, "bbox": [-67.0181092165723, 47.823014570138, -66.9818907834277, 47.876985429862], "type": "ca.gc.nrcan.geoloc.data.model.Geoname"}, {"qualifier": "LOCATION", "title": "Glenwood Provincial Park, Yarmouth, Nova Scotia (Conservation area)", "geometry": {"type": "Point", "coordinates": [-65.875511, 43.796673]}, "locId": 108, "bbox": [-65.894756096598, 43.769681270138, -65.855799903402, 43.823652129862], "type": "ca.gc.nrcan.geoloc.data.model.Geoname"}, {"qualifier": "LOCATION", "title": "Graves Island Provincial Park, Lunenburg, Nova Scotia (Conservation area)", "geometry": {"type": "Point", "coordinates": [-64.206169, 44.560806]}, "locId": 109, "bbox": [-64.2253383687621, 44.533570170138, -64.186883631238, 44.587541029862], "type": "ca.gc.nrcan.geoloc.data.model.Geoname"}, {"qualifier": "LOCATION", "title": "Groves Point Provincial Park, Cape Breton, Nova Scotia (Conservation area)", "geometry": {"type": "Point", "coordinates": [-60.345333, 46.229053]}, "locId": 110, "bbox": [-60.3639459582657, 46.201903470138, -60.3266100417343, 46.255874329862], "type": "ca.gc.nrcan.geoloc.data.model.Geoname"}, {"qualifier": "LOCATION", "title": "Gulf Shore Provincial Park, Cumberland, Nova Scotia (Conservation area)", "geometry": {"type": "Point", "coordinates": [-63.626675, 45.874981]}, "locId": 111, "bbox": [-63.6454550537546, 45.847736770138, -63.6078789462454, 45.901707629862], "type": "ca.gc.nrcan.geoloc.data.model.Geoname"}, {"qualifier": "LOCATION", "title": "Heather Beach Provincial Park, Cumberland, Nova Scotia (Conservation area)", "geometry": {"type": "Point", "coordinates": [-63.75238, 45.87455]}, "locId": 112, "bbox": [-63.7726770537546, 45.847736770138, -63.7351009462454, 45.901707629862], "type": "ca.gc.nrcan.geoloc.data.model.Geoname"}, {"qualifier": "LOCATION", "title": "Lake George Provincial Park, York, New Brunswick (Conservation area)", "geometry": {"type": "Point", "coordinates": [-67.065536, 45.812321]}, "locId": 113, "bbox": [-67.0843431396549, 45.785334570138, -67.0467248603451, 45.839305429862], "type": "ca.gc.nrcan.geoloc.data.model.Geoname"}, {"qualifier": "LOCATION", "title": "Lake St. George Provincial Park, 32 - 1E, Manitoba (Conservation area)", "geometry": {"type": "Point", "coordinates": [-97.429443, 51.727779]}, "locId": 114, "bbox": [-97.44615873439, 51.700792570138, -97.41272926561, 51.754763429862], "type": "ca.gc.nrcan.geoloc.data.model.Geoname"}, {"qualifier": "LOCATION", "title": "Lake George Provincial Park, Kings, Nova Scotia (Conservation area)", "geometry": {"type": "Point", "coordinates": [-64.689613, 44.924416]}, "locId": 115, "bbox": [-64.7085068079023, 44.897214570138, -64.6702931920977, 44.951185429862], "type": "ca.gc.nrcan.geoloc.data.model.Geoname"}, {"geometry": {"type": "Point", "coordinates": [-121.9599526, 53.9040556]}, "locId": 116, "type": "ca.gc.nrcan.geoloc.data.model.Street", "qualifier": "INTERPOLATED_CENTROID", "title": "Purden Lake Provincial Pk, Prince George, British Columbia"}, {"geometry": {"type": "Point", "coordinates": [-121.9562852, 53.8952642]}, "locId": 117, "type": "ca.gc.nrcan.geoloc.data.model.Intersection", "qualifier": "LOCATION", "title": "Prince George Highway 16 East,Purden Lake Provincial Pk, Prince George, British Columbia"}, {"geometry": {"type": "Point", "coordinates": [-121.9452308, 53.8972797]}, "locId": 118, "type": "ca.gc.nrcan.geoloc.data.model.Intersection", "qualifier": "LOCATION", "title": "Prince George Highway 16 East,Purden Lake Provincial Pk, Prince George, British Columbia"}, {"qualifier": "LOCATION", "title": "Lake Midway Provincial Park, Digby, Nova Scotia (Conservation area)", "geometry": {"type": "Point", "coordinates": [-66.041054, 44.529667]}, "locId": 119, "bbox": [-66.0606265555629, 44.502736770138, -66.0221514444371, 44.556707629862], "type": "ca.gc.nrcan.geoloc.data.model.Geoname"}, {"qualifier": "LOCATION", "title": "Lake-O-Law Provincial Park, Inverness, Nova Scotia (Conservation area)", "geometry": {"type": "Point", "coordinates": [-60.962128, 46.276348]}, "locId": 120, "bbox": [-60.9805961751784, 46.248292370138, -60.9432918248216, 46.302263229862], "type": "ca.gc.nrcan.geoloc.data.model.Geoname"}, {"qualifier": "LOCATION", "title": "Laurie Provincial Park, Halifax, Nova Scotia (Conservation area)", "geometry": {"type": "Point", "coordinates": [-63.601906, 44.884003]}, "locId": 121, "bbox": [-63.6207872104636, 44.856903470138, -63.5825467895364, 44.910874329862], "type": "ca.gc.nrcan.geoloc.data.model.Geoname"}, {"qualifier": "LOCATION", "title": "Lawrencetown Beach Provincial Park, Halifax, Nova Scotia (Conservation area)", "geometry": {"type": "Point", "coordinates": [-63.340858, 44.644241]}, "locId": 122, "bbox": [-63.3600327170451, 44.617181570138, -63.3216332829549, 44.671152429862], "type": "ca.gc.nrcan.geoloc.data.model.Geoname"}, {"qualifier": "LOCATION", "title": "Lennox Passage Provincial Park, Richmond, Nova Scotia (Conservation area)", "geometry": {"type": "Point", "coordinates": [-61.021664, 45.592594]}, "locId": 123, "bbox": [-61.0402722396329, 45.565514570138, -61.0025057603671, 45.619485429862], "type": "ca.gc.nrcan.geoloc.data.model.Geoname"}, {"qualifier": "LOCATION", "title": "Lewis Lake Provincial Park, Halifax, Nova Scotia (Conservation area)", "geometry": {"type": "Point", "coordinates": [-63.846165, 44.689411]}, "locId": 124, "bbox": [-63.8652958179815, 44.662181170138, -63.8269261820185, 44.716152029862], "type": "ca.gc.nrcan.geoloc.data.model.Geoname"}, {"qualifier": "LOCATION", "title": "Lochiel Lake Provincial Park, Guysborough, Nova Scotia (Conservation area)", "geometry": {"type": "Point", "coordinates": [-62.058681, 45.354294]}, "locId": 125, "bbox": [-62.0764630801058, 45.327736770138, -62.0385369198942, 45.381707629862], "type": "ca.gc.nrcan.geoloc.data.model.Geoname"}, {"qualifier": "LOCATION", "title": "Long Lake Provincial Park, 63-19-W4, Alberta (Conservation area)", "geometry": {"type": "Point", "coordinates": [-112.77111, 54.443054]}, "locId": 126, "bbox": [-112.7868023, 54.41607017, -112.7554177, 54.47004103], "type": "ca.gc.nrcan.geoloc.data.model.Geoname"}, {"qualifier": "LOCATION", "title": "Long Lake Provincial Park, Halifax, Nova Scotia (Conservation area)", "geometry": {"type": "Point", "coordinates": [-63.621269, 44.615421]}, "locId": 127, "bbox": [-63.68823137, 44.56623509, -63.62124215, 44.63587534], "type": "ca.gc.nrcan.geoloc.data.model.Geoname"}, {"qualifier": "LOCATION", "title": "Long Point Provincial Park, Norfolk, Ontario (Conservation area)", "geometry": {"type": "Point", "coordinates": [-80.383774, 42.579708]}, "locId": 128, "bbox": [-80.4036403634851, 42.552724570138, -80.3638996365149, 42.606695429862], "type": "ca.gc.nrcan.geoloc.data.model.Geoname"}, {"qualifier": "LOCATION", "title": "Lumsden Pond Provincial Park, Kings, Nova Scotia (Conservation area)", "geometry": {"type": "Point", "coordinates": [-64.397751, 45.02457]}, "locId": 129, "bbox": [-64.4165734378372, 44.997458970138, -64.3784265621628, 45.051429829862], "type": "ca.gc.nrcan.geoloc.data.model.Geoname"}, {"qualifier": "LOCATION", "title": "Mabou Provincial Park, Inverness, Nova Scotia (Conservation area)", "geometry": {"type": "Point", "coordinates": [-61.372841, 46.081684]}, "locId": 130, "bbox": [-61.3898287786933, 46.055236870138, -61.3523932213067, 46.109207729862], "type": "ca.gc.nrcan.geoloc.data.model.Geoname"}, {"qualifier": "LOCATION", "title": "West Mabou Beach Provincial Park, Inverness, Nova Scotia (Conservation area)", "geometry": {"type": "Point", "coordinates": [-61.473644, 46.077003]}, "locId": 131, "bbox": [-61.5114975693676, 46.049958570138, -61.4740584306324, 46.103929429862], "type": "ca.gc.nrcan.geoloc.data.model.Geoname"}, {"qualifier": "LOCATION", "title": "Port Maitland Beach Provincial Park, Yarmouth, Nova Scotia (Conservation area)", "geometry": {"type": "Point", "coordinates": [-66.152412, 43.987232]}, "locId": 132, "bbox": [-66.1733047829345, 43.960514570138, -66.1344732170655, 44.014485429862], "type": "ca.gc.nrcan.geoloc.data.model.Geoname"}, {"qualifier": "LOCATION", "title": "Marie Joseph Provincial Park, Guysborough, Nova Scotia (Conservation area)", "geometry": {"type": "Point", "coordinates": [-62.084846, 44.967854]}, "locId": 133, "bbox": [-62.1038143086295, 44.940792270138, -62.0656296913705, 44.994763129862], "type": "ca.gc.nrcan.geoloc.data.model.Geoname"}, {"qualifier": "LOCATION", "title": "Martinique Beach Provincial Park, Halifax, Nova Scotia (Conservation area)", "geometry": {"type": "Point", "coordinates": [-63.131657, 44.692318]}, "locId": 134, "bbox": [-63.1497396218245, 44.665792370138, -63.1113723781755, 44.719763229862], "type": "ca.gc.nrcan.geoloc.data.model.Geoname"}, {"qualifier": "LOCATION", "title": "McNabs and Lawlor Islands Provincial Park, Halifax, Nova Scotia (Conservation area)", "geometry": {"type": "Point", "coordinates": [-63.515434, 44.609921]}, "locId": 135, "bbox": [-63.5369891135502, 44.582736570138, -63.4985668864498, 44.636707429862], "type": "ca.gc.nrcan.geoloc.data.model.Geoname"}, {"qualifier": "LOCATION", "title": "MacElmons Pond Provincial Park, Colchester, Nova Scotia (Conservation area)", "geometry": {"type": "Point", "coordinates": [-63.427399, 45.391186]}, "locId": 136, "bbox": [-63.446172882658, 45.364125670138, -63.408271117342, 45.418096529862], "type": "ca.gc.nrcan.geoloc.data.model.Geoname"}, {"qualifier": "LOCATION", "title": "Melmerby Beach Provincial Park, Pictou, Nova Scotia (Conservation area)", "geometry": {"type": "Point", "coordinates": [-62.50959, 45.657585]}, "locId": 137, "bbox": [-62.5283053574242, 45.630514570138, -62.4905826425758, 45.684485429862], "type": "ca.gc.nrcan.geoloc.data.model.Geoname"}, {"qualifier": "LOCATION", "title": "Mira River Provincial Park, Cape Breton, Nova Scotia (Conservation area)", "geometry": {"type": "Point", "coordinates": [-60.044029, 46.029346]}, "locId": 138, "bbox": [-60.062624770687, 46.002181270138, -60.025153229313, 46.056152129862], "type": "ca.gc.nrcan.geoloc.data.model.Geoname"}, {"qualifier": "LOCATION", "title": "Moose River Gold Mines Provincial Park, Halifax, Nova Scotia (Conservation area)", "geometry": {"type": "Point", "coordinates": [-62.944614, 44.980968]}, "locId": 139, "bbox": [-62.959920870103, 44.954125670138, -62.921745129897, 45.008096529862], "type": "ca.gc.nrcan.geoloc.data.model.Geoname"}, {"qualifier": "LOCATION", "title": "Mount Uniacke Provincial Park, Hants, Nova Scotia (Conservation area)", "geometry": {"type": "Point", "coordinates": [-63.83297, 44.894798]}, "locId": 140, "bbox": [-63.8518946095574, 44.867736770138, -63.8136613904426, 44.921707629862], "type": "ca.gc.nrcan.geoloc.data.model.Geoname"}, {"qualifier": "LOCATION", "title": "Musquodoboit Valley Provincial Park, Halifax, Nova Scotia (Conservation area)", "geometry": {"type": "Point", "coordinates": [-63.112244, 45.055168]}, "locId": 141, "bbox": [-63.1312852546577, 45.028014570138, -63.0931587453423, 45.081985429862], "type": "ca.gc.nrcan.geoloc.data.model.Geoname"}, {"qualifier": "LOCATION", "title": "Northport Beach Provincial Park, Cumberland, Nova Scotia (Conservation area)", "geometry": {"type": "Point", "coordinates": [-63.844368, 45.926231]}, "locId": 142, "bbox": [-63.8637711425132, 45.897736770138, -63.8262288574868, 45.951707629862], "type": "ca.gc.nrcan.geoloc.data.model.Geoname"}, {"qualifier": "LOCATION", "title": "Oakfield Provincial Park, Halifax, Nova Scotia (Conservation area)", "geometry": {"type": "Point", "coordinates": [-63.587303, 44.915356]}, "locId": 143, "bbox": [-63.6063317751544, 44.888292370138, -63.5681122248456, 44.942263229862], "type": "ca.gc.nrcan.geoloc.data.model.Geoname"}, {"qualifier": "LOCATION", "title": "Petersfield Provincial Park, Cape Breton, Nova Scotia (Conservation area)", "geometry": {"type": "Point", "coordinates": [-60.219772, 46.146816]}, "locId": 144, "bbox": [-60.2384178088105, 46.119958570138, -60.2010261911895, 46.173929429862], "type": "ca.gc.nrcan.geoloc.data.model.Geoname"}, {"qualifier": "LOCATION", "title": "Plaster Provincial Park, Victoria, Nova Scotia (Conservation area)", "geometry": {"type": "Point", "coordinates": [-60.475246, 46.414505]}, "locId": 145, "bbox": [-60.4936047526313, 46.387458970138, -60.4563952473687, 46.441429829862], "type": "ca.gc.nrcan.geoloc.data.model.Geoname"}, {"qualifier": "LOCATION", "title": "Pondville Beach Provincial Park, Richmond, Nova Scotia (Conservation area)", "geometry": {"type": "Point", "coordinates": [-60.977734, 45.538265]}, "locId": 146, "bbox": [-60.9964012694883, 45.511903470138, -60.9585987305117, 45.565874329862], "type": "ca.gc.nrcan.geoloc.data.model.Geoname"}, {"qualifier": "LOCATION", "title": "Port Maitland Beach Provincial Park, Yarmouth, Nova Scotia (Conservation area)", "geometry": {"type": "Point", "coordinates": [-66.152412, 43.987232]}, "locId": 147, "bbox": [-66.1733047829345, 43.960514570138, -66.1344732170655, 44.014485429862], "type": "ca.gc.nrcan.geoloc.data.model.Geoname"}, {"qualifier": "LOCATION", "title": "Porters Lake Provincial Park, Nova Scotia (Conservation area)", "geometry": {"type": "Point", "coordinates": [-63.302334, 44.689552]}, "locId": 148, "bbox": [-63.321406725967, 44.662458970138, -63.283037274033, 44.716429829862], "type": "ca.gc.nrcan.geoloc.data.model.Geoname"}, {"qualifier": "LOCATION", "title": "Powells Point Provincial Park, Pictou, Nova Scotia (Conservation area)", "geometry": {"type": "Point", "coordinates": [-62.559391, 45.653118]}, "locId": 149, "bbox": [-62.5780298544021, 45.626070170138, -62.5403041455979, 45.680041029862], "type": "ca.gc.nrcan.geoloc.data.model.Geoname"}, {"qualifier": "LOCATION", "title": "Queensland Beach Provincial Park, Halifax, Nova Scotia (Conservation area)", "geometry": {"type": "Point", "coordinates": [-64.028374, 44.636875]}, "locId": 150, "bbox": [-64.0455915668717, 44.608570170138, -64.0071864331283, 44.662541029862], "type": "ca.gc.nrcan.geoloc.data.model.Geoname"}, {"qualifier": "LOCATION", "title": "Rainbow Haven Beach Provincial Park, Halifax, Nova Scotia (Conservation area)", "geometry": {"type": "Point", "coordinates": [-63.418049, 44.649548]}, "locId": 151, "bbox": [-63.4369759704788, 44.622458570138, -63.3985800295212, 44.676429429862], "type": "ca.gc.nrcan.geoloc.data.model.Geoname"}, {"qualifier": "LOCATION", "title": "Rissers Beach Provincial Park, Lunenburg, Nova Scotia (Conservation area)", "geometry": {"type": "Point", "coordinates": [-64.429855, 44.230911]}, "locId": 152, "bbox": [-64.4490580138482, 44.203847970138, -64.4103859861518, 44.257818829862], "type": "ca.gc.nrcan.geoloc.data.model.Geoname"}, {"qualifier": "LOCATION", "title": "Rushtons Beach Provincial Park, Pictou, Nova Scotia (Conservation area)", "geometry": {"type": "Point", "coordinates": [-63.122627, 45.756519]}, "locId": 153, "bbox": [-63.1413280199902, 45.729403470138, -63.1036719800098, 45.783374329862], "type": "ca.gc.nrcan.geoloc.data.model.Geoname"}, {"qualifier": "LOCATION", "title": "Sable River Provincial Park, Shelburne, Nova Scotia (Conservation area)", "geometry": {"type": "Point", "coordinates": [-65.075256, 43.831249]}, "locId": 154, "bbox": [-65.0844655061545, 43.808292370138, -65.0455344938455, 43.862263229862], "type": "ca.gc.nrcan.geoloc.data.model.Geoname"}, {"qualifier": "LOCATION", "title": "Salsman Provincial Park, Guysborough, Nova Scotia (Conservation area)", "geometry": {"type": "Point", "coordinates": [-61.770237, 45.236198]}, "locId": 155, "bbox": [-61.7856693205962, 45.210514570138, -61.7476646794038, 45.264485429862], "type": "ca.gc.nrcan.geoloc.data.model.Geoname"}, {"qualifier": "LOCATION", "title": "Salt Springs Provincial Park, Pictou, Nova Scotia (Conservation area)", "geometry": {"type": "Point", "coordinates": [-62.873428, 45.545567]}, "locId": 156, "bbox": [-62.8977881217167, 45.518292370138, -62.8599898782833, 45.572263229862], "type": "ca.gc.nrcan.geoloc.data.model.Geoname"}, {"qualifier": "LOCATION", "title": "Sand Hills Beach Provincial Park, Shelburne, Nova Scotia (Conservation area)", "geometry": {"type": "Point", "coordinates": [-65.555252, 43.529675]}, "locId": 157, "bbox": [-65.5745649906241, 43.502458970138, -65.5354350093759, 43.556429829862], "type": "ca.gc.nrcan.geoloc.data.model.Geoname"}, {"qualifier": "LOCATION", "title": "Savary Provincial Park, Digby, Nova Scotia (Conservation area)", "geometry": {"type": "Point", "coordinates": [-65.907265, 44.512745]}, "locId": 158, "bbox": [-65.9261875181892, 44.484681270138, -65.8877004818108, 44.538652129862], "type": "ca.gc.nrcan.geoloc.data.model.Geoname"}, {"qualifier": "LOCATION", "title": "Second Peninsula Provincial Park, Lunenburg, Nova Scotia (Conservation area)", "geometry": {"type": "Point", "coordinates": [-64.296219, 44.404613]}, "locId": 159, "bbox": [-64.2867784300335, 44.378847870138, -64.2482215699665, 44.432818729862], "type": "ca.gc.nrcan.geoloc.data.model.Geoname"}, {"qualifier": "LOCATION", "title": "Shinimicas Provincial Park, Cumberland, Nova Scotia (Conservation area)", "geometry": {"type": "Point", "coordinates": [-63.908798, 45.870354]}, "locId": 160, "bbox": [-63.9274006501807, 45.843014570138, -63.8898213498193, 45.896985429862], "type": "ca.gc.nrcan.geoloc.data.model.Geoname"}, {"qualifier": "LOCATION", "title": "Smileys Provincial Park, Hants, Nova Scotia (Conservation area)", "geometry": {"type": "Point", "coordinates": [-63.963284, 45.013939]}, "locId": 161, "bbox": [-63.9821329543788, 44.986903470138, -63.9439790456212, 45.040874329862], "type": "ca.gc.nrcan.geoloc.data.model.Geoname"}, {"qualifier": "LOCATION", "title": "South West Margaree Provincial Park, Inverness, Nova Scotia (Conservation area)", "geometry": {"type": "Point", "coordinates": [-61.167263, 46.283615]}, "locId": 162, "bbox": [-61.1858713386095, 46.256625670138, -61.1485726613905, 46.310596529862], "type": "ca.gc.nrcan.geoloc.data.model.Geoname"}, {"qualifier": "LOCATION", "title": "St. Anns Provincial Park, Victoria, Nova Scotia (Conservation area)", "geometry": {"type": "Point", "coordinates": [-60.623001, 46.207184]}, "locId": 163, "bbox": [-60.6414534202367, 46.179959070138, -60.6041025797633, 46.233929929862], "type": "ca.gc.nrcan.geoloc.data.model.Geoname"}, {"qualifier": "LOCATION", "title": "Summerville Beach Provincial Park, Queens, Nova Scotia (Conservation area)", "geometry": {"type": "Point", "coordinates": [-64.821396, 43.950108]}, "locId": 164, "bbox": [-64.8408170450053, 43.923014570138, -64.8019609549947, 43.976985429862], "type": "ca.gc.nrcan.geoloc.data.model.Geoname"}, {"qualifier": "LOCATION", "title": "Tatamagouche Provincial Park, Colchester, Nova Scotia (Conservation area)", "geometry": {"type": "Point", "coordinates": [-63.268761, 45.707001]}, "locId": 165, "bbox": [-63.2846765719866, 45.683292270138, -63.2469894280134, 45.737263129862], "type": "ca.gc.nrcan.geoloc.data.model.Geoname"}, {"qualifier": "LOCATION", "title": "Taylor Head Provincial Park, Halifax, Nova Scotia (Conservation area)", "geometry": {"type": "Point", "coordinates": [-62.562965, 44.818588]}, "locId": 166, "bbox": [-62.5819199860232, 44.791347970138, -62.5436360139768, 44.845318829862], "type": "ca.gc.nrcan.geoloc.data.model.Geoname"}, {"qualifier": "LOCATION", "title": "Ten Mile Lake Provincial Park, Queens, Nova Scotia (Conservation area)", "geometry": {"type": "Point", "coordinates": [-64.833572, 44.189499]}, "locId": 167, "bbox": [-64.8526826065655, 44.162458970138, -64.8139833934345, 44.216429829862], "type": "ca.gc.nrcan.geoloc.data.model.Geoname"}, {"qualifier": "LOCATION", "title": "The Islands Provincial Park, Shelburne, Nova Scotia (Conservation area)", "geometry": {"type": "Point", "coordinates": [-65.335014, 43.764931]}, "locId": 168, "bbox": [-65.3544885064542, 43.737736870138, -65.3155114935458, 43.791707729862], "type": "ca.gc.nrcan.geoloc.data.model.Geoname"}, {"qualifier": "LOCATION", "title": "Tidnish Dock Provincial Park, Cumberland, Nova Scotia (Conservation area)", "geometry": {"type": "Point", "coordinates": [-64.007881, 45.997314]}, "locId": 169, "bbox": [-64.0265245958251, 45.970236770138, -63.9890314041749, 46.024207629862], "type": "ca.gc.nrcan.geoloc.data.model.Geoname"}, {"qualifier": "LOCATION", "title": "Upper Clements Provincial Park, Annapolis, Nova Scotia (Conservation area)", "geometry": {"type": "Point", "coordinates": [-65.568619, 44.703335]}, "locId": 170, "bbox": [-65.5877912170702, 44.676070070138, -65.5494307829298, 44.730040929862], "type": "ca.gc.nrcan.geoloc.data.model.Geoname"}, {"qualifier": "LOCATION", "title": "Valleyview Provincial Park, Annapolis, Nova Scotia (Conservation area)", "geometry": {"type": "Point", "coordinates": [-65.312462, 44.871433]}, "locId": 171, "bbox": [-65.3313463645187, 44.844403470138, -65.2930976354813, 44.898374329862], "type": "ca.gc.nrcan.geoloc.data.model.Geoname"}, {"qualifier": "LOCATION", "title": "Waterside Beach Provincial Park, Pictou, Nova Scotia (Conservation area)", "geometry": {"type": "Point", "coordinates": [-62.775795, 45.761215]}, "locId": 172, "bbox": [-62.7943824266379, 45.734125670138, -62.7567295733621, 45.788096529862], "type": "ca.gc.nrcan.geoloc.data.model.Geoname"}, {"qualifier": "LOCATION", "title": "Wentworth Provincial Park, Cumberland, Nova Scotia (Conservation area)", "geometry": {"type": "Point", "coordinates": [-63.567333, 45.627239]}, "locId": 173, "bbox": [-63.5860935534482, 45.600236770138, -63.5483504465518, 45.654207629862], "type": "ca.gc.nrcan.geoloc.data.model.Geoname"}, {"qualifier": "LOCATION", "title": "Whycocomagh Provincial Park, Inverness, Nova Scotia (Conservation area)", "geometry": {"type": "Point", "coordinates": [-61.101334, 45.968021]}, "locId": 174, "bbox": [-61.119867568585, 45.940792370138, -61.082354431415, 45.994763229862], "type": "ca.gc.nrcan.geoloc.data.model.Geoname"}, {"geometry": {"type": "Point", "coordinates": [-61.1050019, 45.9668174]}, "locId": 175, "type": "ca.gc.nrcan.geoloc.data.model.Street", "qualifier": "INTERPOLATED_CENTROID", "title": "Provincial Park Road, Whycocomagh, Nova Scotia"}, {"geometry": {"type": "Point", "coordinates": [-61.1099174, 45.9680593]}, "locId": 176, "type": "ca.gc.nrcan.geoloc.data.model.Intersection", "qualifier": "LOCATION", "title": "Highway 105,Provincial Park Road, Whycocomagh, Nova Scotia"}, {"geometry": {"type": "Point", "coordinates": [-61.1020713, 45.9627242]}, "locId": 177, "type": "ca.gc.nrcan.geoloc.data.model.Intersection", "qualifier": "LOCATION", "title": "Highway 105,Provincial Park Road, Whycocomagh, Nova Scotia"}, {"qualifier": "LOCATION", "title": "Alder Ground Wilderness Area, Guysborough, Nova Scotia (Conservation area)", "geometry": {"type": "Point", "coordinates": [-62.305328, 45.135853]}, "locId": 178, "bbox": [-62.3243363005504, 45.108814570138, -62.2862636994496, 45.162785429862], "type": "ca.gc.nrcan.geoloc.data.model.Geoname"}, {"qualifier": "LOCATION", "title": "Boggy Lake Wilderness Area, Guysborough, Nova Scotia (Conservation area)", "geometry": {"type": "Point", "coordinates": [-62.310059, 45.089169]}, "locId": 179, "bbox": [-62.368405, 45.053417, -62.246986, 45.1162751], "type": "ca.gc.nrcan.geoloc.data.model.Geoname"}, {"qualifier": "LOCATION", "title": "Bonnet Lake Barrens Wilderness Area, Guysborough, Nova Scotia (Conservation area)", "geometry": {"type": "Point", "coordinates": [-61.338966, 45.285004]}, "locId": 180, "bbox": [-61.495411, 45.2340481, -61.177855, 45.325539], "type": "ca.gc.nrcan.geoloc.data.model.Geoname"}, {"qualifier": "LOCATION", "title": "Bowers Meadows Wilderness Area, Shelburne, Nova Scotia (Conservation area)", "geometry": {"type": "Point", "coordinates": [-65.413254, 43.630775]}, "locId": 181, "bbox": [-65.457656, 43.5906981, -65.356084, 43.6942024], "type": "ca.gc.nrcan.geoloc.data.model.Geoname"}, {"qualifier": "LOCATION", "title": "Canso Coastal Barrens Wilderness Area, Guysborough, Nova Scotia (Conservation area)", "geometry": {"type": "Point", "coordinates": [-61.089428, 45.286823]}, "locId": 182, "bbox": [-61.171344, 45.2124949, -61.031678, 45.332371], "type": "ca.gc.nrcan.geoloc.data.model.Geoname"}, {"qualifier": "LOCATION", "title": "Clattenburgh Brook Wilderness Area, Halifax, Nova Scotia (Conservation area)", "geometry": {"type": "Point", "coordinates": [-63.414757, 44.865196]}, "locId": 183, "bbox": [-63.465671, 44.8470956, -63.357499, 44.8891117], "type": "ca.gc.nrcan.geoloc.data.model.Geoname"}, {"qualifier": "LOCATION", "title": "Cloud Lake Wilderness Area, Annapolis, Nova Scotia (Conservation area)", "geometry": {"type": "Point", "coordinates": [-64.892036, 44.81274]}, "locId": 184, "bbox": [-64.974233, 44.7168442, -64.800414, 44.8773604], "type": "ca.gc.nrcan.geoloc.data.model.Geoname"}, {"qualifier": "LOCATION", "title": "Economy River Wilderness Area, Colchester, Nova Scotia (Conservation area)", "geometry": {"type": "Point", "coordinates": [-63.937099, 45.500664]}, "locId": 185, "bbox": [-64.087024, 45.4409776, -63.865893, 45.5668071], "type": "ca.gc.nrcan.geoloc.data.model.Geoname"}, {"qualifier": "LOCATION", "title": "Eigg Mountain-James River Wilderness Area, Antigonish, Nova Scotia (Conservation area)", "geometry": {"type": "Point", "coordinates": [-62.142235, 45.666122]}, "locId": 186, "bbox": [-62.199718, 45.5943184, -62.095982, 45.7547093], "type": "ca.gc.nrcan.geoloc.data.model.Geoname"}, {"qualifier": "LOCATION", "title": "French River Wilderness Area, Victoria, Nova Scotia (Conservation area)", "geometry": {"type": "Point", "coordinates": [-60.523457, 46.455853]}, "locId": 187, "bbox": [-60.589099, 46.3875847, -60.456424, 46.5062869], "type": "ca.gc.nrcan.geoloc.data.model.Geoname"}, {"qualifier": "LOCATION", "title": "Gabarus Wilderness Area, Cape Breton, Nova Scotia (Conservation area)", "geometry": {"type": "Point", "coordinates": [-60.142982, 45.807865]}, "locId": 188, "bbox": [-60.215989, 45.7649557, -60.07589, 45.8237968], "type": "ca.gc.nrcan.geoloc.data.model.Geoname"}, {"qualifier": "LOCATION", "title": "Gully Lake Wilderness Area, Colchester; Pictou, Nova Scotia (Conservation area)", "geometry": {"type": "Point", "coordinates": [-63.063679, 45.53896]}, "locId": 189, "bbox": [-63.113726, 45.4941338, -63.003836, 45.5905652], "type": "ca.gc.nrcan.geoloc.data.model.Geoname"}, {"qualifier": "LOCATION", "title": "Jim Campbells Barren Wilderness Area, Inverness, Nova Scotia (Conservation area)", "geometry": {"type": "Point", "coordinates": [-60.909878, 46.566528]}, "locId": 190, "bbox": [-60.941666, 46.5367294, -60.883145, 46.5949943], "type": "ca.gc.nrcan.geoloc.data.model.Geoname"}, {"qualifier": "LOCATION", "title": "Lake Rossignol Wilderness Area, Queens, Nova Scotia (Conservation area)", "geometry": {"type": "Point", "coordinates": [-65.041344, 44.244263]}, "locId": 191, "bbox": [-65.121323, 44.1960903, -64.985449, 44.2822632], "type": "ca.gc.nrcan.geoloc.data.model.Geoname"}, {"qualifier": "LOCATION", "title": "Margaree River Wilderness Area, Inverness, Nova Scotia (Conservation area)", "geometry": {"type": "Point", "coordinates": [-60.884411, 46.499802]}, "locId": 192, "bbox": [-60.952288, 46.4316295, -60.753329, 46.6010216], "type": "ca.gc.nrcan.geoloc.data.model.Geoname"}, {"qualifier": "LOCATION", "title": "McGill Lake Wilderness Area, Annapolis, Nova Scotia (Conservation area)", "geometry": {"type": "Point", "coordinates": [-65.007362, 44.666775]}, "locId": 193, "bbox": [-65.0263922580008, 44.639714570138, -64.9880077419992, 44.693685429862], "type": "ca.gc.nrcan.geoloc.data.model.Geoname"}, {"qualifier": "LOCATION", "title": "Middle River-Framboise Wilderness Area, Cape Breton, Nova Scotia (Conservation area)", "geometry": {"type": "Point", "coordinates": [-60.443771, 45.788101]}, "locId": 194, "bbox": [-60.535904, 45.7376337, -60.363004, 45.8382723], "type": "ca.gc.nrcan.geoloc.data.model.Geoname"}, {"qualifier": "LOCATION", "title": "Middle River Wilderness Area, Victoria, Nova Scotia (Conservation area)", "geometry": {"type": "Point", "coordinates": [-60.889523, 46.242809]}, "locId": 195, "bbox": [-60.945632, 46.1696686, -60.822774, 46.317916], "type": "ca.gc.nrcan.geoloc.data.model.Geoname"}, {"qualifier": "LOCATION", "title": "North River Wilderness Area, Victoria, Nova Scotia (Conservation area)", "geometry": {"type": "Point", "coordinates": [-60.682091, 46.306709]}, "locId": 196, "bbox": [-60.763192, 46.2408521, -60.646035, 46.3731499], "type": "ca.gc.nrcan.geoloc.data.model.Geoname"}, {"qualifier": "LOCATION", "title": "Ogden Round Lake Wilderness Area, Guysborough, Nova Scotia (Conservation area)", "geometry": {"type": "Point", "coordinates": [-61.640862, 45.405994]}, "locId": 197, "bbox": [-61.712959, 45.3659114, -61.571452, 45.4395537], "type": "ca.gc.nrcan.geoloc.data.model.Geoname"}, {"qualifier": "LOCATION", "title": "Portapique River Wilderness Area, Cumberland, Nova Scotia (Conservation area)", "geometry": {"type": "Point", "coordinates": [-63.731487, 45.496334]}, "locId": 198, "bbox": [-63.770275, 45.4636342, -63.701496, 45.5445273], "type": "ca.gc.nrcan.geoloc.data.model.Geoname"}, {"qualifier": "LOCATION", "title": "Scatarie Island Wilderness Area, Cape Breton, Nova Scotia (Conservation area)", "geometry": {"type": "Point", "coordinates": [-59.738926, 46.010147]}, "locId": 199, "bbox": [-59.798913, 45.9948186, -59.683953, 46.0355902], "type": "ca.gc.nrcan.geoloc.data.model.Geoname"}, {"qualifier": "LOCATION", "title": "Sugarloaf Mountain Wilderness Area, Inverness, Nova Scotia (Conservation area)", "geometry": {"type": "Point", "coordinates": [-60.933414, 46.420795]}, "locId": 200, "bbox": [-60.9519026525061, 46.393614570138, -60.9146973474939, 46.447585429862], "type": "ca.gc.nrcan.geoloc.data.model.Geoname"}, {"qualifier": "LOCATION", "title": "Tangier Grand Lake Wilderness Area, Halifax, Nova Scotia (Conservation area)", "geometry": {"type": "Point", "coordinates": [-62.805618, 44.874043]}, "locId": 201, "bbox": [-62.928946, 44.8114236, -62.684592, 44.9363024], "type": "ca.gc.nrcan.geoloc.data.model.Geoname"}, {"qualifier": "LOCATION", "title": "The Big Bog Wilderness Area, Guysborough, Nova Scotia (Conservation area)", "geometry": {"type": "Point", "coordinates": [-62.09943, 45.186382]}, "locId": 202, "bbox": [-62.141346, 45.1540166, -62.050609, 45.2149205], "type": "ca.gc.nrcan.geoloc.data.model.Geoname"}, {"qualifier": "LOCATION", "title": "Tidney River Wilderness Area, Shelburne, Nova Scotia (Conservation area)", "geometry": {"type": "Point", "coordinates": [-65.065361, 43.943661]}, "locId": 203, "bbox": [-65.155881, 43.8512156, -64.94694, 44.0583959], "type": "ca.gc.nrcan.geoloc.data.model.Geoname"}, {"qualifier": "LOCATION", "title": "Tobeatic Wilderness Area, Digby, Nova Scotia (Conservation area)", "geometry": {"type": "Point", "coordinates": [-65.56179, 44.251431]}, "locId": 204, "bbox": [-65.820996, 43.979973, -65.27287, 44.5141669], "type": "ca.gc.nrcan.geoloc.data.model.Geoname"}, {"qualifier": "LOCATION", "title": "Waverley Salmon River Long Lake Wilderness Area, Halifax, Nova Scotia (Conservation area)", "geometry": {"type": "Point", "coordinates": [-63.460506, 44.788074]}, "locId": 205, "bbox": [-63.55424, 44.7501004, -63.357973, 44.8697844], "type": "ca.gc.nrcan.geoloc.data.model.Geoname"}, {"qualifier": "LOCATION", "title": "White Otter Lake Wilderness Area, Kenora, Ontario (Conservation area)", "geometry": {"type": "Point", "coordinates": [-91.909447, 49.171944]}, "locId": 206, "bbox": [-91.9270868365127, 49.144958970138, -91.8918011634873, 49.198929829862], "type": "ca.gc.nrcan.geoloc.data.model.Geoname"}, {"qualifier": "LOCATION", "title": "White Lake Wilderness Area, Halifax, Nova Scotia (Conservation area)", "geometry": {"type": "Point", "coordinates": [-63.158375, 44.858513]}, "locId": 207, "bbox": [-63.227773, 44.8201916, -63.107365, 44.8979538], "type": "ca.gc.nrcan.geoloc.data.model.Geoname"}, {"qualifier": "LOCATION", "title": "Abraham Lake, 10,12-89-9-E, Manitoba (Lake)", "geometry": {"type": "Point", "coordinates": [-96.219719, 56.709721]}, "locId": 208, "bbox": [-96.258021, 56.697105, -96.185979, 56.72083], "type": "ca.gc.nrcan.geoloc.data.model.Geoname"}, {"qualifier": "LOCATION", "title": "Lac Abraham-Bell, Saint-M\u00e9dard; Les Basques, Quebec (Lake)", "geometry": {"type": "Point", "coordinates": [-68.888641, 48.073639]}, "locId": 209, "bbox": [-68.892861, 48.070757, -68.88334, 48.076303], "type": "ca.gc.nrcan.geoloc.data.model.Geoname"}, {"qualifier": "LOCATION", "title": "Lac Abraham, Lac-Oscar; Antoine-Labelle, Quebec (Lake)", "geometry": {"type": "Point", "coordinates": [-74.797775, 47.086666]}, "locId": 210, "bbox": [-74.8161521448715, 47.059681570138, -74.7794038551285, 47.113652429862], "type": "ca.gc.nrcan.geoloc.data.model.Geoname"}, {"qualifier": "LOCATION", "title": "Lac Abraham, Lac-Jacques-Cartier; La C\u00f4te-de-Beaupr\u00e9, Quebec (Lake)", "geometry": {"type": "Point", "coordinates": [-71.322777, 47.350277]}, "locId": 211, "bbox": [-71.325719, 47.348242, -71.321294, 47.35246], "type": "ca.gc.nrcan.geoloc.data.model.Geoname"}, {"qualifier": "LOCATION", "title": "Abraham Lake, Halifax, Nova Scotia (Lake)", "geometry": {"type": "Point", "coordinates": [-62.626907, 45.167397]}, "locId": 212, "bbox": [-62.639217, 45.163681, -62.616152, 45.169871], "type": "ca.gc.nrcan.geoloc.data.model.Geoname"}, {"qualifier": "LOCATION", "title": "Abraham Lake, 37,38-17,18-W5, Alberta (Lake)", "geometry": {"type": "Point", "coordinates": [-116.42722, 52.22361]}, "locId": 213, "bbox": [-116.48322, 52.0572211, -116.32645, 52.3323535], "type": "ca.gc.nrcan.geoloc.data.model.Geoname"}, {"qualifier": "LOCATION", "title": "Duncans Cove, Halifax, Nova Scotia (Unincorporated area)", "geometry": {"type": "Point", "coordinates": [-63.531044, 44.500732]}, "locId": 214, "bbox": [-63.5503580949798, 44.473847570138, -63.5118639050202, 44.527818429862], "type": "ca.gc.nrcan.geoloc.data.model.Geoname"}, {"qualifier": "LOCATION", "title": "Duncans Cove, Halifax, Nova Scotia (Bay)", "geometry": {"type": "Point", "coordinates": [-63.525162, 44.498238]}, "locId": 215, "bbox": [-63.5485394749748, 44.4775121417816, -63.5164605250252, 44.5224878582184], "type": "ca.gc.nrcan.geoloc.data.model.Geoname"}, {"qualifier": "LOCATION", "title": "Duncans Cove Pond, Halifax, Nova Scotia (Lake)", "geometry": {"type": "Point", "coordinates": [-63.534424, 44.49815]}, "locId": 216, "bbox": [-63.540583, 44.4890605, -63.527751, 44.5070507], "type": "ca.gc.nrcan.geoloc.data.model.Geoname"}, {"geometry": {"type": "Point", "coordinates": [-63.5287085, 44.4994339]}, "locId": 217, "type": "ca.gc.nrcan.geoloc.data.model.Street", "qualifier": "INTERPOLATED_CENTROID", "title": "Duncans Cove Road, Duncans Cove, Nova Scotia"}, {"geometry": {"type": "Point", "coordinates": [-63.5279737, 44.4972527]}, "locId": 218, "type": "ca.gc.nrcan.geoloc.data.model.Street", "qualifier": "INTERPOLATED_CENTROID", "title": "Gannet Lane, Duncans Cove, Nova Scotia"}, {"geometry": {"type": "Point", "coordinates": [-63.5295906, 44.5010341]}, "locId": 219, "type": "ca.gc.nrcan.geoloc.data.model.Street", "qualifier": "INTERPOLATED_CENTROID", "title": "Chebucto Head Road, Duncans Cove, Nova Scotia"}, {"geometry": {"type": "Point", "coordinates": [-63.5256409, 44.5002028]}, "locId": 220, "type": "ca.gc.nrcan.geoloc.data.model.Street", "qualifier": "INTERPOLATED_CENTROID", "title": "Joeys Way, Duncans Cove, Nova Scotia"}, {"geometry": {"type": "Point", "coordinates": [-63.5418767, 44.5009915]}, "locId": 221, "type": "ca.gc.nrcan.geoloc.data.model.Street", "qualifier": "INTERPOLATED_CENTROID", "title": "Ketch Harbour Road, Duncans Cove, Nova Scotia"}, {"geometry": {"type": "Point", "coordinates": [-63.5460279, 44.4980085]}, "locId": 222, "type": "ca.gc.nrcan.geoloc.data.model.Street", "qualifier": "INTERPOLATED_CENTROID", "title": "Pork Avenue, Duncans Cove, Nova Scotia"}, {"geometry": {"type": "Point", "coordinates": [-63.5223773, 44.5023843]}, "locId": 223, "type": "ca.gc.nrcan.geoloc.data.model.Street", "qualifier": "INTERPOLATED_CENTROID", "title": "Windship Lane, Duncans Cove, Nova Scotia"}, {"geometry": {"type": "Point", "coordinates": [-63.5274899, 44.4989999]}, "locId": 224, "type": "ca.gc.nrcan.geoloc.data.model.Intersection", "qualifier": "LOCATION", "title": "Duncans Cove Road,Gannet Lane, Duncans Cove, Nova Scotia"}, {"geometry": {"type": "Point", "coordinates": [-63.5310447, 44.5007313]}, "locId": 225, "type": "ca.gc.nrcan.geoloc.data.model.Intersection", "qualifier": "LOCATION", "title": "Chebucto Head Road,Duncans Cove Road, Duncans Cove, Nova Scotia"}, {"geometry": {"type": "Point", "coordinates": [-63.525652, 44.5013429]}, "locId": 226, "type": "ca.gc.nrcan.geoloc.data.model.Intersection", "qualifier": "LOCATION", "title": "Chebucto Head Road,Joeys Way, Duncans Cove, Nova Scotia"}, {"geometry": {"type": "Point", "coordinates": [-63.5430651, 44.4971408]}, "locId": 227, "type": "ca.gc.nrcan.geoloc.data.model.Intersection", "qualifier": "LOCATION", "title": "Ketch Harbour Road,Pork Avenue, Duncans Cove, Nova Scotia"}, {"geometry": {"type": "Point", "coordinates": [-63.5417417, 44.4994805]}, "locId": 228, "type": "ca.gc.nrcan.geoloc.data.model.Intersection", "qualifier": "LOCATION", "title": "Chebucto Head Road,Ketch Harbour Road, Duncans Cove, Nova Scotia"}, {"geometry": {"type": "Point", "coordinates": [-63.5242973, 44.5014819]}, "locId": 229, "type": "ca.gc.nrcan.geoloc.data.model.Intersection", "qualifier": "LOCATION", "title": "Chebucto Head Road,Windship Lane, Duncans Cove, Nova Scotia"}, {"qualifier": "LOCATION", "title": "Panuke Lake, Hants, Nova Scotia (Unincorporated area)", "geometry": {"type": "Point", "coordinates": [-64.132118, 44.830196]}, "locId": 230, "bbox": [-64.1513380129485, 44.803314570138, -64.1130619870515, 44.857285429862], "type": "ca.gc.nrcan.geoloc.data.model.Geoname"}, {"qualifier": "LOCATION", "title": "Panuke Lake, Hants; Halifax, Nova Scotia (Lake)", "geometry": {"type": "Point", "coordinates": [-64.097527, 44.828537]}, "locId": 231, "bbox": [-64.163455, 44.7090656, -64.039935, 44.925391], "type": "ca.gc.nrcan.geoloc.data.model.Geoname"}, {"qualifier": "LOCATION", "title": "Ponhook Lake, Queens, Nova Scotia (Lake)", "geometry": {"type": "Point", "coordinates": [-64.879654, 44.313328]}, "locId": 232, "bbox": [-64.930473, 44.2757991, -64.832523, 44.3330997], "type": "ca.gc.nrcan.geoloc.data.model.Geoname"}, {"qualifier": "LOCATION", "title": "Ponhook Lake 10, Queens, Nova Scotia (Indian Reserve)", "geometry": {"type": "Point", "coordinates": [-64.999725, 44.168056]}, "locId": 233, "bbox": [-65.0045102, 44.1587573, -64.9883883, 44.1764836], "type": "ca.gc.nrcan.geoloc.data.model.Geoname"}, {"qualifier": "LOCATION", "title": "Little Ponhook Lake, Queens, Nova Scotia (Lake)", "geometry": {"type": "Point", "coordinates": [-64.849747, 44.300449]}, "locId": 234, "bbox": [-64.856284, 44.294611, -64.843321, 44.307951], "type": "ca.gc.nrcan.geoloc.data.model.Geoname"}, {"geometry": {"type": "Point", "coordinates": [-65.000195, 44.16321]}, "locId": 235, "type": "ca.gc.nrcan.geoloc.data.model.Street", "qualifier": "INTERPOLATED_CENTROID", "title": "Francis Circle, Ponhook Lake 10, Nova Scotia"}, {"geometry": {"type": "Point", "coordinates": [-64.9966701, 44.1679079]}, "locId": 236, "type": "ca.gc.nrcan.geoloc.data.model.Street", "qualifier": "INTERPOLATED_CENTROID", "title": "Old Garden Road, Ponhook Lake 10, Nova Scotia"}, {"geometry": {"type": "Point", "coordinates": [-64.9972727, 44.1595694]}, "locId": 237, "type": "ca.gc.nrcan.geoloc.data.model.Street", "qualifier": "INTERPOLATED_CENTROID", "title": "River Road, Ponhook Lake 10, Nova Scotia"}, {"geometry": {"type": "Point", "coordinates": [-64.9997793, 44.1634926]}, "locId": 238, "type": "ca.gc.nrcan.geoloc.data.model.Intersection", "qualifier": "LOCATION", "title": "Francis Circle,Old Garden Road, Ponhook Lake 10, Nova Scotia"}, {"geometry": {"type": "Point", "coordinates": [-64.9973627, 44.1595961]}, "locId": 239, "type": "ca.gc.nrcan.geoloc.data.model.Intersection", "qualifier": "LOCATION", "title": "Old Garden Road,River Road, Pleasantfield,Ponhook Lake 10, Nova Scotia"}, {"qualifier": "LOCATION", "title": "Quinns Meadow, Shelburne, Nova Scotia (Low vegetation)", "geometry": {"type": "Point", "coordinates": [-65.475044, 43.672581]}, "locId": 240, "bbox": [-65.4821000186893, 43.6441787417816, -65.4495659813107, 43.6891544582184], "type": "ca.gc.nrcan.geoloc.data.model.Geoname"}, {"qualifier": "LOCATION", "title": "Quinns Meadow, Shelburne, Nova Scotia (Unincorporated area)", "geometry": {"type": "Point", "coordinates": [-65.479507, 43.748264]}, "locId": 241, "bbox": [-65.4988939208371, 43.721114570138, -65.4599060791629, 43.775085429862], "type": "ca.gc.nrcan.geoloc.data.model.Geoname"}, {"qualifier": "LOCATION", "title": "River Inhabitants, Richmond; Inverness, Nova Scotia (River)", "geometry": {"type": "Point", "coordinates": [-61.237778, 45.626633]}, "locId": 242, "bbox": [-61.34191745, 45.59889664, -61.22200206, 45.82242561], "type": "ca.gc.nrcan.geoloc.data.model.Geoname"}, {"qualifier": "LOCATION", "title": "Lower River Inhabitants, Richmond, Nova Scotia (Unincorporated area)", "geometry": {"type": "Point", "coordinates": [-61.236145, 45.608177]}, "locId": 243, "bbox": [-61.2536004723916, 45.579681570138, -61.2158435276084, 45.633652429862], "type": "ca.gc.nrcan.geoloc.data.model.Geoname"}, {"qualifier": "LOCATION", "title": "Northwest Arm of the River Inhabitants, Inverness, Nova Scotia (Bay)", "geometry": {"type": "Point", "coordinates": [-61.256657, 45.68438]}, "locId": 244, "bbox": [-61.2648775449033, 45.6608455417816, -61.2334564550967, 45.7058212582184], "type": "ca.gc.nrcan.geoloc.data.model.Geoname"}, {"geometry": {"type": "Point", "coordinates": [-61.2467693, 45.6233937]}, "locId": 245, "type": "ca.gc.nrcan.geoloc.data.model.Street", "qualifier": "INTERPOLATED_CENTROID", "title": "Lower River Road, Lower River Inhabitants, Nova Scotia"}, {"geometry": {"type": "Point", "coordinates": [-61.238242, 45.5993012]}, "locId": 246, "type": "ca.gc.nrcan.geoloc.data.model.Street", "qualifier": "INTERPOLATED_CENTROID", "title": "Port Malcolm Road, Lower River Inhabitants, Nova Scotia"}, {"geometry": {"type": "Point", "coordinates": [-61.2395493, 45.6161817]}, "locId": 247, "type": "ca.gc.nrcan.geoloc.data.model.Street", "qualifier": "INTERPOLATED_CENTROID", "title": "Vince McCarthy Drive, Lower River Inhabitants, Nova Scotia"}, {"geometry": {"type": "Point", "coordinates": [-61.2429112, 45.6203548]}, "locId": 248, "type": "ca.gc.nrcan.geoloc.data.model.Street", "qualifier": "INTERPOLATED_CENTROID", "title": "Proctor Road, Lower River Inhabitants, Nova Scotia"}, {"geometry": {"type": "Point", "coordinates": [-61.2446451, 45.6135987]}, "locId": 249, "type": "ca.gc.nrcan.geoloc.data.model.Street", "qualifier": "INTERPOLATED_CENTROID", "title": "Church Street, Lower River Inhabitants, Nova Scotia"}, {"geometry": {"type": "Point", "coordinates": [-61.2459249, 45.6101739]}, "locId": 250, "type": "ca.gc.nrcan.geoloc.data.model.Street", "qualifier": "INTERPOLATED_CENTROID", "title": "Highway 104, Lower River Inhabitants, Nova Scotia"}, {"geometry": {"type": "Point", "coordinates": [-61.2446451, 45.6135987]}, "locId": 251, "type": "ca.gc.nrcan.geoloc.data.model.Street", "qualifier": "INTERPOLATED_CENTROID", "title": "Chapel Road, Lower River Inhabitants, Nova Scotia"}, {"geometry": {"type": "Point", "coordinates": [-61.2405865, 45.6138971]}, "locId": 252, "type": "ca.gc.nrcan.geoloc.data.model.Intersection", "qualifier": "LOCATION", "title": "Church Street,Lower River Road, Lower River Inhabitants, Nova Scotia"}, {"geometry": {"type": "Point", "coordinates": [-61.2455352, 45.6195953]}, "locId": 253, "type": "ca.gc.nrcan.geoloc.data.model.Intersection", "qualifier": "LOCATION", "title": "Lower River Road,Proctor Road, Lower River Inhabitants, Nova Scotia"}, {"geometry": {"type": "Point", "coordinates": [-61.2413743, 45.6154466]}, "locId": 254, "type": "ca.gc.nrcan.geoloc.data.model.Intersection", "qualifier": "LOCATION", "title": "Lower River Road,Vince McCarthy Drive, Lower River Inhabitants, Nova Scotia"}, {"geometry": {"type": "Point", "coordinates": [-61.2402579, 45.6127174]}, "locId": 255, "type": "ca.gc.nrcan.geoloc.data.model.Intersection", "qualifier": "LOCATION", "title": "Highway 104,Lower River Road,Port Malcolm Road, Lower River Inhabitants, Nova Scotia"}, {"qualifier": "LOCATION", "title": "Roman Valley, Guysborough, Nova Scotia (Unincorporated area)", "geometry": {"type": "Point", "coordinates": [-61.710552, 45.457699]}, "locId": 256, "bbox": [-61.72948451629, 45.430792570138, -61.69162748371, 45.484763429862], "type": "ca.gc.nrcan.geoloc.data.model.Geoname"}, {"qualifier": "LOCATION", "title": "East Roman Valley, Guysborough, Nova Scotia (Unincorporated area)", "geometry": {"type": "Point", "coordinates": [-61.702053, 45.457806]}, "locId": 257, "bbox": [-61.7208725163572, 45.430792370138, -61.6830154836428, 45.484763229862], "type": "ca.gc.nrcan.geoloc.data.model.Geoname"}, {"qualifier": "LOCATION", "title": "Roman Valley River, Guysborough; Antigonish, Nova Scotia (River)", "geometry": {"type": "Point", "coordinates": [-61.60725, 45.454731]}, "locId": 258, "bbox": [-61.769319, 45.453005, -61.607288, 45.463205], "type": "ca.gc.nrcan.geoloc.data.model.Geoname"}, {"geometry": {"type": "Point", "coordinates": [-61.7166333, 45.4570008]}, "locId": 259, "type": "ca.gc.nrcan.geoloc.data.model.Street", "qualifier": "INTERPOLATED_CENTROID", "title": "Antigonish Guysborough Road, Roman Valley, Nova Scotia"}, {"geometry": {"type": "Point", "coordinates": [-61.7015058, 45.4500897]}, "locId": 260, "type": "ca.gc.nrcan.geoloc.data.model.Street", "qualifier": "INTERPOLATED_CENTROID", "title": "Farrell Road, Roman Valley, Nova Scotia"}, {"geometry": {"type": "Point", "coordinates": [-61.7302668, 45.4522238]}, "locId": 261, "type": "ca.gc.nrcan.geoloc.data.model.Street", "qualifier": "INTERPOLATED_CENTROID", "title": "Glencoe Road, Roman Valley, Nova Scotia"}, {"geometry": {"type": "Point", "coordinates": [-61.7015058, 45.4500897]}, "locId": 262, "type": "ca.gc.nrcan.geoloc.data.model.Street", "qualifier": "INTERPOLATED_CENTROID", "title": "Farrel Drive, Roman Valley, Nova Scotia"}, {"geometry": {"type": "Point", "coordinates": [-61.7166333, 45.4570008]}, "locId": 263, "type": "ca.gc.nrcan.geoloc.data.model.Street", "qualifier": "INTERPOLATED_CENTROID", "title": "Intervale Road, Roman Valley, Nova Scotia"}, {"geometry": {"type": "Point", "coordinates": [-61.7302668, 45.4522238]}, "locId": 264, "type": "ca.gc.nrcan.geoloc.data.model.Street", "qualifier": "INTERPOLATED_CENTROID", "title": "Upper Glencoe Road, Roman Valley, Nova Scotia"}, {"geometry": {"type": "Point", "coordinates": [-61.7095217, 45.4621828]}, "locId": 265, "type": "ca.gc.nrcan.geoloc.data.model.Street", "qualifier": "INTERPOLATED_CENTROID", "title": "Heatherton Road, Roman Valley, Nova Scotia"}, {"geometry": {"type": "Point", "coordinates": [-61.7021853, 45.4575221]}, "locId": 266, "type": "ca.gc.nrcan.geoloc.data.model.Intersection", "qualifier": "LOCATION", "title": "Antigonish Guysborough Road,Farrel Drive, Roman Valley, Nova Scotia"}, {"geometry": {"type": "Point", "coordinates": [-61.7107414, 45.4577676]}, "locId": 267, "type": "ca.gc.nrcan.geoloc.data.model.Intersection", "qualifier": "LOCATION", "title": "Antigonish Guysborough Road,Heatherton Road, Roman Valley, Nova Scotia"}, {"geometry": {"type": "Point", "coordinates": [-61.725799, 45.4567583]}, "locId": 268, "type": "ca.gc.nrcan.geoloc.data.model.Intersection", "qualifier": "LOCATION", "title": "Antigonish Guysborough Road,Upper Glencoe Road, Roman Valley, Nova Scotia"}, {"qualifier": "LOCATION", "title": "Spinneys Heath, Yarmouth, Nova Scotia (Low vegetation)", "geometry": {"type": "Point", "coordinates": [-65.818466, 43.772694]}, "locId": 269, "bbox": [-65.8320728941646, 43.7441788417816, -65.7995931058354, 43.7891545582184], "type": "ca.gc.nrcan.geoloc.data.model.Geoname"}, {"qualifier": "LOCATION", "title": "Sporting Lake, Digby, Nova Scotia (Lake)", "geometry": {"type": "Point", "coordinates": [-65.59771, 44.287853]}, "locId": 270, "bbox": [-65.60919979, 44.27923935, -65.58020705, 44.3008991], "type": "ca.gc.nrcan.geoloc.data.model.Geoname"}, {"qualifier": "LOCATION", "title": "Sporting Lake Stream, Digby, Nova Scotia (River)", "geometry": {"type": "Point", "coordinates": [-65.637749, 44.357548]}, "locId": 271, "bbox": [-65.638781, 44.300434, -65.59321, 44.36066], "type": "ca.gc.nrcan.geoloc.data.model.Geoname"}, {"qualifier": "LOCATION", "title": "Washabuck River, Victoria, Nova Scotia (River)", "geometry": {"type": "Point", "coordinates": [-60.835651, 46.052677]}, "locId": 272, "bbox": [-60.930584, 45.96665, -60.875859, 46.011287], "type": "ca.gc.nrcan.geoloc.data.model.Geoname"}, {"qualifier": "LOCATION", "title": "Aulds Cove Beach, Antigonish; Guysborough, Nova Scotia (Conservation area)", "geometry": {"type": "Point", "coordinates": [-61.437477, 45.650303]}, "locId": 273, "bbox": [-61.4563637899052, 45.623292570138, -61.4186362100948, 45.677263429862], "type": "ca.gc.nrcan.geoloc.data.model.Geoname"}, {"qualifier": "LOCATION", "title": "Bartletts Beach, Digby, Nova Scotia (Beach)", "geometry": {"type": "Point", "coordinates": [-66.156937, 44.014664]}, "locId": 274, "bbox": [-66.1653388666725, 43.9941788417816, -66.1329951333275, 44.0391545582184], "type": "ca.gc.nrcan.geoloc.data.model.Geoname"}, {"qualifier": "LOCATION", "title": "Bartletts Beach, Digby, Nova Scotia (Conservation area)", "geometry": {"type": "Point", "coordinates": [-66.158875, 44.019093]}, "locId": 275, "bbox": [-66.1782944217105, 43.992181570138, -66.1394835782895, 44.046152429862], "type": "ca.gc.nrcan.geoloc.data.model.Geoname"}, {"qualifier": "LOCATION", "title": "Bayfield Beach, Antigonish, Nova Scotia (Beach)", "geometry": {"type": "Point", "coordinates": [-61.752087, 45.635174]}, "locId": 276, "bbox": [-61.7648915799706, 45.6108454417816, -61.7334424200294, 45.6558211582184], "type": "ca.gc.nrcan.geoloc.data.model.Geoname"}, {"qualifier": "LOCATION", "title": "Bayfield Beach, Antigonish, Nova Scotia (Conservation area)", "geometry": {"type": "Point", "coordinates": [-61.750477, 45.634277]}, "locId": 277, "bbox": [-61.7694242152582, 45.607181570138, -61.7316857847418, 45.661152429862], "type": "ca.gc.nrcan.geoloc.data.model.Geoname"}, {"geometry": {"type": "Point", "coordinates": [-61.7587456, 45.6401491]}, "locId": 278, "type": "ca.gc.nrcan.geoloc.data.model.Street", "qualifier": "INTERPOLATED_CENTROID", "title": "Bayfield Beach Road, Bayfield, Nova Scotia"}, {"geometry": {"type": "Point", "coordinates": [-61.7599183, 45.632884]}, "locId": 279, "type": "ca.gc.nrcan.geoloc.data.model.Intersection", "qualifier": "LOCATION", "title": "Bayfield Beach Road,Summerside Road, Bayfield, Nova Scotia"}, {"geometry": {"type": "Point", "coordinates": [-79.8090612, 43.2559613]}, "locId": 280, "type": "ca.gc.nrcan.geoloc.data.model.Intersection", "qualifier": "LOCATION", "title": "Bayfield Avenue,Beach Road,Grenfell Street, City Of Hamilton, Ontario"}, {"geometry": {"type": "Point", "coordinates": [-81.7057262, 43.7169693]}, "locId": 281, "type": "ca.gc.nrcan.geoloc.data.model.Intersection", "qualifier": "LOCATION", "title": "Bayfield Road,Bluewater Beach Road,Bluewater Highway, Municipality Of Central Huron, Ontario"}, {"qualifier": "LOCATION", "title": "Beach Meadows Beach, Queens, Nova Scotia (Beach)", "geometry": {"type": "Point", "coordinates": [-64.639206, 44.05645]}, "locId": 282, "bbox": [-64.6486627730582, 44.0275121417816, -64.6163372269418, 44.0724878582184], "type": "ca.gc.nrcan.geoloc.data.model.Geoname"}, {"qualifier": "LOCATION", "title": "Beach Meadows Beach, Queens, Nova Scotia (Conservation area)", "geometry": {"type": "Point", "coordinates": [-64.638649, 44.057411]}, "locId": 283, "bbox": [-64.6580038714868, 44.030514570138, -64.6192181285132, 44.084485429862], "type": "ca.gc.nrcan.geoloc.data.model.Geoname"}, {"qualifier": "LOCATION", "title": "Beach Meadows, Queens, Nova Scotia (Unincorporated area)", "geometry": {"type": "Point", "coordinates": [-64.638397, 44.064533]}, "locId": 284, "bbox": [-64.6574455970924, 44.037458570138, -64.6186644029076, 44.091429429862], "type": "ca.gc.nrcan.geoloc.data.model.Geoname"}, {"qualifier": "LOCATION", "title": "Beach Meadows Lake, Queens, Nova Scotia (Lake)", "geometry": {"type": "Point", "coordinates": [-64.655472, 44.09296]}, "locId": 285, "bbox": [-64.658476, 44.09077, -64.653198, 44.096064], "type": "ca.gc.nrcan.geoloc.data.model.Geoname"}, {"qualifier": "LOCATION", "title": "Pollys Meadow Beach, Shelburne, Nova Scotia (Beach)", "geometry": {"type": "Point", "coordinates": [-65.341736, 43.73061]}, "locId": 286, "bbox": [-65.3487489411554, 43.7108455417816, -65.3162510588446, 43.7558212582184], "type": "ca.gc.nrcan.geoloc.data.model.Geoname"}, {"qualifier": "LOCATION", "title": "Beach Meadows Brook, Queens, Nova Scotia (River)", "geometry": {"type": "Point", "coordinates": [-64.637756, 44.064018]}, "locId": 287, "bbox": [-64.654144, 44.06397, -64.637013, 44.09077], "type": "ca.gc.nrcan.geoloc.data.model.Geoname"}, {"geometry": {"type": "Point", "coordinates": [-64.6416566, 44.0573088]}, "locId": 288, "type": "ca.gc.nrcan.geoloc.data.model.Street", "qualifier": "INTERPOLATED_CENTROID", "title": "Beach Meadows Beach Road, Beach Meadows, Nova Scotia"}, {"geometry": {"type": "Point", "coordinates": [-53.2901775, 47.5469256]}, "locId": 289, "type": "ca.gc.nrcan.geoloc.data.model.Street", "qualifier": "INTERPOLATED_CENTROID", "title": "Meadow Lane, Clarke's Beach, Newfoundland and Labrador"}, {"geometry": {"type": "Point", "coordinates": [-64.6430413, 44.0543754]}, "locId": 290, "type": "ca.gc.nrcan.geoloc.data.model.Street", "qualifier": "INTERPOLATED_CENTROID", "title": "Beachfront Lane, Beach Meadows, Nova Scotia"}, {"geometry": {"type": "Point", "coordinates": [-64.6474419, 44.0597423]}, "locId": 291, "type": "ca.gc.nrcan.geoloc.data.model.Street", "qualifier": "INTERPOLATED_CENTROID", "title": "Old Meeting House Road, Beach Meadows, Nova Scotia"}, {"geometry": {"type": "Point", "coordinates": [-64.6480403, 44.0494859]}, "locId": 292, "type": "ca.gc.nrcan.geoloc.data.model.Street", "qualifier": "INTERPOLATED_CENTROID", "title": "Shoreview Drive, Beach Meadows, Nova Scotia"}, {"geometry": {"type": "Point", "coordinates": [-64.6388815, 44.0596562]}, "locId": 293, "type": "ca.gc.nrcan.geoloc.data.model.Street", "qualifier": "INTERPOLATED_CENTROID", "title": "Israel Lane, Beach Meadows, Nova Scotia"}, {"geometry": {"type": "Point", "coordinates": [-64.6406628, 44.0645392]}, "locId": 294, "type": "ca.gc.nrcan.geoloc.data.model.Street", "qualifier": "INTERPOLATED_CENTROID", "title": "Eastern Shore Road, Beach Meadows, Nova Scotia"}, {"geometry": {"type": "Point", "coordinates": [-64.6480403, 44.0494859]}, "locId": 295, "type": "ca.gc.nrcan.geoloc.data.model.Street", "qualifier": "INTERPOLATED_CENTROID", "title": "Shore View Drive, Beach Meadows, Nova Scotia"}, {"geometry": {"type": "Point", "coordinates": [-64.6205434, 44.0746936]}, "locId": 296, "type": "ca.gc.nrcan.geoloc.data.model.Street", "qualifier": "INTERPOLATED_CENTROID", "title": "Haugh's Road, Beach Meadows, Nova Scotia"}, {"geometry": {"type": "Point", "coordinates": [-64.6595518, 44.0445032]}, "locId": 297, "type": "ca.gc.nrcan.geoloc.data.model.Street", "qualifier": "INTERPOLATED_CENTROID", "title": "Fralic Cove Road, Beach Meadows, Nova Scotia"}, {"geometry": {"type": "Point", "coordinates": [-64.6423931, 44.0602947]}, "locId": 298, "type": "ca.gc.nrcan.geoloc.data.model.Street", "qualifier": "INTERPOLATED_CENTROID", "title": "Lighthouse Route, Beach Meadows, Nova Scotia"}, {"geometry": {"type": "Point", "coordinates": [-64.6430413, 44.0543754]}, "locId": 299, "type": "ca.gc.nrcan.geoloc.data.model.Street", "qualifier": "INTERPOLATED_CENTROID", "title": "Remick Lane, Beach Meadows, Nova Scotia"}, {"geometry": {"type": "Point", "coordinates": [-64.6451254, 44.0502443]}, "locId": 300, "type": "ca.gc.nrcan.geoloc.data.model.Street", "qualifier": "INTERPOLATED_CENTROID", "title": "Brooklyn Shore Road, Beach Meadows, Nova Scotia"}, {"geometry": {"type": "Point", "coordinates": [-64.6205434, 44.0746936]}, "locId": 301, "type": "ca.gc.nrcan.geoloc.data.model.Street", "qualifier": "INTERPOLATED_CENTROID", "title": "Haughns Road, Beach Meadows, Nova Scotia"}, {"geometry": {"type": "Point", "coordinates": [-64.414298, 44.2391051]}, "locId": 302, "type": "ca.gc.nrcan.geoloc.data.model.Street", "qualifier": "INTERPOLATED_CENTROID", "title": "Deer Meadow Lane, Crescent Beach, Nova Scotia"}, {"geometry": {"type": "Point", "coordinates": [-66.1199432, 43.8127204]}, "locId": 303, "type": "ca.gc.nrcan.geoloc.data.model.Street", "qualifier": "INTERPOLATED_CENTROID", "title": "Meadow View Lane, Sand Beach, Nova Scotia"}, {"geometry": {"type": "Point", "coordinates": [-64.0387106, 46.1727889]}, "locId": 304, "type": "ca.gc.nrcan.geoloc.data.model.Street", "qualifier": "INTERPOLATED_CENTROID", "title": "All\u00e9e Beach Meadows Lane, Botsford, New Brunswick"}, {"geometry": {"type": "Point", "coordinates": [-79.9995969, 44.527702]}, "locId": 305, "type": "ca.gc.nrcan.geoloc.data.model.Street", "qualifier": "INTERPOLATED_CENTROID", "title": "Meadow Lane, Town Of Wasaga Beach, Ontario"}, {"geometry": {"type": "Point", "coordinates": [-64.6402708, 44.0568676]}, "locId": 306, "type": "ca.gc.nrcan.geoloc.data.model.Intersection", "qualifier": "LOCATION", "title": "Beach Meadows Beach Road,Israel Lane, Beach Meadows, Nova Scotia"}, {"geometry": {"type": "Point", "coordinates": [-64.6430246, 44.0578937]}, "locId": 307, "type": "ca.gc.nrcan.geoloc.data.model.Intersection", "qualifier": "LOCATION", "title": "Beach Meadows Beach Road,Brooklyn Shore Road,Old Meeting House Road, Beach Meadows, Nova Scotia"}, {"geometry": {"type": "Point", "coordinates": [-64.6204079, 44.0759569]}, "locId": 308, "type": "ca.gc.nrcan.geoloc.data.model.Intersection", "qualifier": "LOCATION", "title": "Cow Road,Eastern Shore Road,Haughns Road, Eagle Head,Beach Meadows,Beach Meadows, Nova Scotia"}, {"geometry": {"type": "Point", "coordinates": [-64.6585786, 44.0451642]}, "locId": 309, "type": "ca.gc.nrcan.geoloc.data.model.Intersection", "qualifier": "LOCATION", "title": "Brooklyn Shore Road,Fralic Cove Road, Beach Meadows, Nova Scotia"}, {"geometry": {"type": "Point", "coordinates": [-64.0335436, 46.1679652]}, "locId": 310, "type": "ca.gc.nrcan.geoloc.data.model.Intersection", "qualifier": "LOCATION", "title": "All\u00e9e Beach Meadows Lane,Route 955 Highway, Botsford, New Brunswick"}, {"geometry": {"type": "Point", "coordinates": [-64.0441806, 46.1770033]}, "locId": 311, "type": "ca.gc.nrcan.geoloc.data.model.Intersection", "qualifier": "LOCATION", "title": "All\u00e9e Beach Meadows Lane,All\u00e9e Edgewater Lane, Botsford, New Brunswick"}, {"geometry": {"type": "Point", "coordinates": [-53.2891301, 47.5461762]}, "locId": 312, "type": "ca.gc.nrcan.geoloc.data.model.Intersection", "qualifier": "LOCATION", "title": "Hill Avenue,Meadow Lane,Shaw's Lane, Clarke's Beach, Newfoundland and Labrador"}, {"geometry": {"type": "Point", "coordinates": [-53.2911796, 47.547764]}, "locId": 313, "type": "ca.gc.nrcan.geoloc.data.model.Intersection", "qualifier": "LOCATION", "title": "Bartlett's Road,Glam Road,Meadow Lane, Clarke's Beach, Newfoundland and Labrador"}, {"geometry": {"type": "Point", "coordinates": [-64.6383846, 44.0645237]}, "locId": 314, "type": "ca.gc.nrcan.geoloc.data.model.Intersection", "qualifier": "LOCATION", "title": "Brooklyn Shore Road,Eastern Shore Road, Beach Meadows, Nova Scotia"}, {"geometry": {"type": "Point", "coordinates": [-64.62239, 44.0744962]}, "locId": 315, "type": "ca.gc.nrcan.geoloc.data.model.Intersection", "qualifier": "LOCATION", "title": "Eastern Shore Road,Haughns Road, Beach Meadows, Nova Scotia"}, {"geometry": {"type": "Point", "coordinates": [-64.4126953, 44.2381473]}, "locId": 316, "type": "ca.gc.nrcan.geoloc.data.model.Intersection", "qualifier": "LOCATION", "title": "Deer Meadow Lane,Highway 331, Crescent Beach, Nova Scotia"}, {"geometry": {"type": "Point", "coordinates": [-66.1209744, 43.8128134]}, "locId": 317, "type": "ca.gc.nrcan.geoloc.data.model.Intersection", "qualifier": "LOCATION", "title": "Chebogue Road,Meadow View Lane, Sand Beach, Nova Scotia"}, {"geometry": {"type": "Point", "coordinates": [-64.6491303, 44.0490112]}, "locId": 318, "type": "ca.gc.nrcan.geoloc.data.model.Intersection", "qualifier": "LOCATION", "title": "Brooklyn Shore Road,Shore View Drive, Beach Meadows, Nova Scotia"}, {"geometry": {"type": "Point", "coordinates": [-64.6468357, 44.0494549]}, "locId": 319, "type": "ca.gc.nrcan.geoloc.data.model.Intersection", "qualifier": "LOCATION", "title": "Brooklyn Shore Road,Shore View Drive, Beach Meadows, Nova Scotia"}, {"geometry": {"type": "Point", "coordinates": [-64.6425702, 44.0596172]}, "locId": 320, "type": "ca.gc.nrcan.geoloc.data.model.Intersection", "qualifier": "LOCATION", "title": "Brooklyn Shore Road,Israel Lane, Beach Meadows, Nova Scotia"}, {"geometry": {"type": "Point", "coordinates": [-64.6442717, 44.0542988]}, "locId": 321, "type": "ca.gc.nrcan.geoloc.data.model.Intersection", "qualifier": "LOCATION", "title": "Beachfront Lane,Brooklyn Shore Road, Beach Meadows, Nova Scotia"}, {"geometry": {"type": "Point", "coordinates": [-80.0022721, 44.5269053]}, "locId": 322, "type": "ca.gc.nrcan.geoloc.data.model.Intersection", "qualifier": "LOCATION", "title": "Meadow Lane,Zoo Park Road, Town Of Wasaga Beach, Ontario"}, {"geometry": {"type": "Point", "coordinates": [-80.0008146, 44.5294644]}, "locId": 323, "type": "ca.gc.nrcan.geoloc.data.model.Intersection", "qualifier": "LOCATION", "title": "Meadow Lane,Wally Drive, Town Of Wasaga Beach, Ontario"}, {"geometry": {"type": "Point", "coordinates": [-64.6515477, 44.062059]}, "locId": 324, "type": "ca.gc.nrcan.geoloc.data.model.Intersection", "qualifier": "LOCATION", "title": "Eastern Shore Road,Old Meeting House Road, Beach Meadows, Nova Scotia"}, {"qualifier": "LOCATION", "title": "Beatty Marsh Beach, Cumberland, Nova Scotia (Conservation area)", "geometry": {"type": "Point", "coordinates": [-63.315315, 45.79892]}, "locId": 325, "bbox": [-63.3340916751152, 45.771903570138, -63.2964643248848, 45.825874429862], "type": "ca.gc.nrcan.geoloc.data.model.Geoname"}, {"qualifier": "LOCATION", "title": "Caines Beach Big Pond, Bellevue, Newfoundland and Labrador (Lake)", "geometry": {"type": "Point", "coordinates": [-53.840557, 47.69389]}, "locId": 326, "bbox": [-53.844392, 47.691669, -53.837396, 47.696269], "type": "ca.gc.nrcan.geoloc.data.model.Geoname"}, {"qualifier": "LOCATION", "title": "Big Pond Beach, Cape Breton, Nova Scotia (Conservation area)", "geometry": {"type": "Point", "coordinates": [-60.238228, 46.261608]}, "locId": 327, "bbox": [-60.256989807305, 46.234681570138, -60.219676192695, 46.288652429862], "type": "ca.gc.nrcan.geoloc.data.model.Geoname"}, {"qualifier": "LOCATION", "title": "Black Point Beach, Shelburne, Nova Scotia (Beach)", "geometry": {"type": "Point", "coordinates": [-65.049385, 43.701099]}, "locId": 328, "bbox": [-65.0654249826737, 43.6775121417816, -65.0329090173262, 43.7224878582184], "type": "ca.gc.nrcan.geoloc.data.model.Geoname"}, {"qualifier": "LOCATION", "title": "Black Point Beach, Halifax, Nova Scotia (Conservation area)", "geometry": {"type": "Point", "coordinates": [-63.973427, 44.652912]}, "locId": 329, "bbox": [-63.9925298669172, 44.625792570138, -63.9541361330828, 44.679763429862], "type": "ca.gc.nrcan.geoloc.data.model.Geoname"}, {"geometry": {"type": "Point", "coordinates": [-62.4561351, 46.0092228]}, "locId": 330, "type": "ca.gc.nrcan.geoloc.data.model.Street", "qualifier": "INTERPOLATED_CENTROID", "title": "Black Brook Road, Beach Point, Prince Edward Island"}, {"geometry": {"type": "Point", "coordinates": [-63.1850077, 46.3845886]}, "locId": 331, "type": "ca.gc.nrcan.geoloc.data.model.Intersection", "qualifier": "LOCATION", "title": "Black River Road,Brackley Point Road, Brackley Beach, Prince Edward Island"}, {"geometry": {"type": "Point", "coordinates": [-62.4625965, 46.0031693]}, "locId": 332, "type": "ca.gc.nrcan.geoloc.data.model.Intersection", "qualifier": "LOCATION", "title": "Black Brook Road,Cape Bear Road, Beach Point, Prince Edward Island"}, {"qualifier": "LOCATION", "title": "Bramber Beach, Hants, Nova Scotia (Conservation area)", "geometry": {"type": "Point", "coordinates": [-64.15834, 45.190926]}, "locId": 333, "bbox": [-64.1773509203909, 45.163847570138, -64.1393150796091, 45.217818429862], "type": "ca.gc.nrcan.geoloc.data.model.Geoname"}, {"geometry": {"type": "Point", "coordinates": [-64.159079, 45.1829476]}, "locId": 334, "type": "ca.gc.nrcan.geoloc.data.model.Street", "qualifier": "INTERPOLATED_CENTROID", "title": "Ocean Beach Road, Bramber, Nova Scotia"}, {"geometry": {"type": "Point", "coordinates": [-64.1502569, 45.1779796]}, "locId": 335, "type": "ca.gc.nrcan.geoloc.data.model.Intersection", "qualifier": "LOCATION", "title": "Highway 215,Ocean Beach Road, Bramber, Nova Scotia"}, {"geometry": {"type": "Point", "coordinates": [-64.1594378, 45.1832175]}, "locId": 336, "type": "ca.gc.nrcan.geoloc.data.model.Intersection", "qualifier": "LOCATION", "title": "Ocean Beach Road,Stephens Lane, Bramber, Nova Scotia"}, {"qualifier": "LOCATION", "title": "Bridgeport Beach, Cape Breton, Nova Scotia (Conservation area)", "geometry": {"type": "Point", "coordinates": [-59.997658, 46.216824]}, "locId": 337, "bbox": [-60.0164500203476, 46.189958570138, -59.9791059796524, 46.243929429862], "type": "ca.gc.nrcan.geoloc.data.model.Geoname"}, {"qualifier": "LOCATION", "title": "Cape Jack Beach, Antigonish, Nova Scotia (Conservation area)", "geometry": {"type": "Point", "coordinates": [-61.578465, 45.679733]}, "locId": 338, "bbox": [-61.5971868708325, 45.652736570138, -61.5594791291675, 45.706707429862], "type": "ca.gc.nrcan.geoloc.data.model.Geoname"}, {"qualifier": "LOCATION", "title": "Carters Beach, Queens, Nova Scotia (Beach)", "geometry": {"type": "Point", "coordinates": [-64.822952, 43.908302]}, "locId": 339, "bbox": [-64.8320366512386, 43.8775121417816, -64.7996293487614, 43.9224878582184], "type": "ca.gc.nrcan.geoloc.data.model.Geoname"}, {"qualifier": "LOCATION", "title": "Carters Beach, Guysborough, Nova Scotia (Beach)", "geometry": {"type": "Point", "coordinates": [-61.239391, 45.481422]}, "locId": 340, "bbox": [-61.2482666131681, 45.4608455417816, -61.2167333868319, 45.5058212582184], "type": "ca.gc.nrcan.geoloc.data.model.Geoname"}, {"qualifier": "LOCATION", "title": "Carters Beach, Queens, Nova Scotia (Conservation area)", "geometry": {"type": "Point", "coordinates": [-64.818779, 43.906437]}, "locId": 341, "bbox": [-64.8383312948356, 43.879403570138, -64.7994467051644, 43.933374429862], "type": "ca.gc.nrcan.geoloc.data.model.Geoname"}, {"geometry": {"type": "Point", "coordinates": [-64.8290276, 43.9119378]}, "locId": 342, "type": "ca.gc.nrcan.geoloc.data.model.Street", "qualifier": "INTERPOLATED_CENTROID", "title": "Carters Beach Road, Port Mouton, Nova Scotia"}, {"geometry": {"type": "Point", "coordinates": [-64.8338053, 43.9122579]}, "locId": 343, "type": "ca.gc.nrcan.geoloc.data.model.Intersection", "qualifier": "LOCATION", "title": "Carters Beach Road,Central Port Mouton Road, Port Mouton, Nova Scotia"}, {"qualifier": "LOCATION", "title": "Catalone Gut Beach, Cape Breton, Nova Scotia (Conservation area)", "geometry": {"type": "Point", "coordinates": [-59.933277, 46.007275]}, "locId": 344, "bbox": [-59.9520762077862, 45.980236570138, -59.9145897922137, 46.034207429862], "type": "ca.gc.nrcan.geoloc.data.model.Geoname"}, {"qualifier": "LOCATION", "title": "Chance Harbour Beach, Pictou, Nova Scotia (Beach)", "geometry": {"type": "Point", "coordinates": [-62.586559, 45.676857]}, "locId": 345, "bbox": [-62.5982105449033, 45.6608455417816, -62.5667894550967, 45.7058212582184], "type": "ca.gc.nrcan.geoloc.data.model.Geoname"}, {"qualifier": "LOCATION", "title": "Chance Harbour Beach, Pictou, Nova Scotia (Conservation area)", "geometry": {"type": "Point", "coordinates": [-62.585781, 45.676903]}, "locId": 346, "bbox": [-62.6046878068958, 45.649958570138, -62.5669781931042, 45.703929429862], "type": "ca.gc.nrcan.geoloc.data.model.Geoname"}, {"geometry": {"type": "Point", "coordinates": [-62.5866654, 45.6766286]}, "locId": 347, "type": "ca.gc.nrcan.geoloc.data.model.Street", "qualifier": "INTERPOLATED_CENTROID", "title": "Beach Road, Chance Harbour, Nova Scotia"}, {"geometry": {"type": "Point", "coordinates": [-62.5856775, 45.6766646]}, "locId": 348, "type": "ca.gc.nrcan.geoloc.data.model.Intersection", "qualifier": "LOCATION", "title": "Beach Road,Sugarberry Lane, Chance Harbour, Nova Scotia"}, {"geometry": {"type": "Point", "coordinates": [-62.5841469, 45.6758157]}, "locId": 349, "type": "ca.gc.nrcan.geoloc.data.model.Intersection", "qualifier": "LOCATION", "title": "Beach Road,Sinclair Road, Chance Harbour, Nova Scotia"}, {"geometry": {"type": "Point", "coordinates": [-62.5868063, 45.6766453]}, "locId": 350, "type": "ca.gc.nrcan.geoloc.data.model.Intersection", "qualifier": "LOCATION", "title": "Beach Road,Seaside Drive, Chance Harbour, Nova Scotia"}, {"geometry": {"type": "Point", "coordinates": [-62.5892367, 45.6768377]}, "locId": 351, "type": "ca.gc.nrcan.geoloc.data.model.Intersection", "qualifier": "LOCATION", "title": "Beach Road,Lewis Road, Chance Harbour, Nova Scotia"}, {"qualifier": "LOCATION", "title": "Cherry Hill Beach, Lunenburg, Nova Scotia (Conservation area)", "geometry": {"type": "Point", "coordinates": [-64.516853, 44.138515]}, "locId": 352, "bbox": [-64.5363102871371, 44.111625570138, -64.4975777128629, 44.165596429862], "type": "ca.gc.nrcan.geoloc.data.model.Geoname"}, {"qualifier": "LOCATION", "title": "Cheverie Beach, Hants, Nova Scotia (Conservation area)", "geometry": {"type": "Point", "coordinates": [-64.178581, 45.156738]}, "locId": 353, "bbox": [-64.1976403333656, 45.129681570138, -64.1595816666344, 45.183652429862], "type": "ca.gc.nrcan.geoloc.data.model.Geoname"}, {"qualifier": "LOCATION", "title": "Christies Beach, Cape Breton, Nova Scotia (Beach)", "geometry": {"type": "Point", "coordinates": [-60.30146, 46.233055]}, "locId": 354, "bbox": [-60.3147223722158, 46.2108454417816, -60.2836116277842, 46.2558211582184], "type": "ca.gc.nrcan.geoloc.data.model.Geoname"}, {"qualifier": "LOCATION", "title": "Christies Beach, Cape Breton, Nova Scotia (Conservation area)", "geometry": {"type": "Point", "coordinates": [-60.301933, 46.232555]}, "locId": 355, "bbox": [-60.3206107300853, 46.205514570138, -60.2832772699147, 46.259485429862], "type": "ca.gc.nrcan.geoloc.data.model.Geoname"}, {"qualifier": "LOCATION", "title": "Church Point Beach, Digby, Nova Scotia (Conservation area)", "geometry": {"type": "Point", "coordinates": [-66.1213, 44.323811]}, "locId": 356, "bbox": [-66.140694416274, 44.296903570138, -66.102083583726, 44.350874429862], "type": "ca.gc.nrcan.geoloc.data.model.Geoname"}, {"qualifier": "LOCATION", "title": "Conrods and Lawrencetown Beach, Halifax, Nova Scotia (Conservation area)", "geometry": {"type": "Point", "coordinates": [-63.342937, 44.644035]}, "locId": 357, "bbox": [-63.3622547170451, 44.617181570138, -63.3238552829549, 44.671152429862], "type": "ca.gc.nrcan.geoloc.data.model.Geoname"}, {"qualifier": "LOCATION", "title": "Cooks Cove Beach, Guysborough, Nova Scotia (Conservation area)", "geometry": {"type": "Point", "coordinates": [-61.483929, 45.367195]}, "locId": 358, "bbox": [-61.5028478910734, 45.340236570138, -61.4649301089266, 45.394207429862], "type": "ca.gc.nrcan.geoloc.data.model.Geoname"}, {"qualifier": "LOCATION", "title": "Dominion Beach, Cape Breton, Nova Scotia (Conservation area)", "geometry": {"type": "Point", "coordinates": [-60.038357, 46.21965]}, "locId": 359, "bbox": [-60.0570040757103, 46.192736570138, -60.0196619242897, 46.246707429862], "type": "ca.gc.nrcan.geoloc.data.model.Geoname"}, {"qualifier": "LOCATION", "title": "Dominion Beach Provincial Park, Cape Breton, Nova Scotia (Conservation area)", "geometry": {"type": "Point", "coordinates": [-60.039658, 46.220146]}, "locId": 360, "bbox": [-60.0581149811761, 46.193014570138, -60.0207730188239, 46.246985429862], "type": "ca.gc.nrcan.geoloc.data.model.Geoname"}, {"qualifier": "LOCATION", "title": "Dunns and Monks Head Beach, Antigonish, Nova Scotia (Conservation area)", "geometry": {"type": "Point", "coordinates": [-61.847099, 45.675205]}, "locId": 361, "bbox": [-61.866077368243, 45.648292570138, -61.828366631757, 45.702263429862], "type": "ca.gc.nrcan.geoloc.data.model.Geoname"}, {"qualifier": "LOCATION", "title": "Florence Beach, Cape Breton, Nova Scotia (Beach)", "geometry": {"type": "Point", "coordinates": [-60.239559, 46.262913]}, "locId": 362, "bbox": [-60.2647129216059, 46.2441787417816, -60.2336210783941, 46.2891544582184], "type": "ca.gc.nrcan.geoloc.data.model.Geoname"}, {"qualifier": "LOCATION", "title": "Florence Beach, Cape Breton, Nova Scotia (Conservation area)", "geometry": {"type": "Point", "coordinates": [-60.251556, 46.268162]}, "locId": 363, "bbox": [-60.2703216330851, 46.241070570138, -60.2330123669149, 46.295041429862], "type": "ca.gc.nrcan.geoloc.data.model.Geoname"}, {"geometry": {"type": "Point", "coordinates": [-60.2453985, 46.26771]}, "locId": 364, "type": "ca.gc.nrcan.geoloc.data.model.Street", "qualifier": "INTERPOLATED_CENTROID", "title": "Beach Street, Florence, Nova Scotia"}, {"geometry": {"type": "Point", "coordinates": [-60.2445195, 46.2666394]}, "locId": 365, "type": "ca.gc.nrcan.geoloc.data.model.Intersection", "qualifier": "LOCATION", "title": "Beach Street,Shore Road, Florence, Nova Scotia"}, {"qualifier": "LOCATION", "title": "Fox Island Main Beach, Guysborough, Nova Scotia (Beach)", "geometry": {"type": "Point", "coordinates": [-61.113495, 45.34499]}, "locId": 366, "bbox": [-61.1316368853435, 45.3275121417816, -61.1000291146565, 45.3724878582184], "type": "ca.gc.nrcan.geoloc.data.model.Geoname"}, {"qualifier": "LOCATION", "title": "Fox Island Main Beach, Guysborough, Nova Scotia (Conservation area)", "geometry": {"type": "Point", "coordinates": [-61.090401, 45.345909]}, "locId": 367, "bbox": [-61.1092440585762, 45.318847570138, -61.0713119414238, 45.372818429862], "type": "ca.gc.nrcan.geoloc.data.model.Geoname"}, {"qualifier": "LOCATION", "title": "Fox Point Beach, Lunenburg, Nova Scotia (Beach)", "geometry": {"type": "Point", "coordinates": [-64.062691, 44.597885]}, "locId": 368, "bbox": [-64.08184494077, 44.5775121417816, -64.04982105923, 44.6224878582184], "type": "ca.gc.nrcan.geoloc.data.model.Geoname"}, {"qualifier": "LOCATION", "title": "Fox Point Beach, Cumberland, Nova Scotia (Conservation area)", "geometry": {"type": "Point", "coordinates": [-64.5103, 45.394291]}, "locId": 369, "bbox": [-64.5292278579816, 45.367181570138, -64.4913281420184, 45.421152429862], "type": "ca.gc.nrcan.geoloc.data.model.Geoname"}, {"qualifier": "LOCATION", "title": "Framboise Beach, Richmond, Nova Scotia (Conservation area)", "geometry": {"type": "Point", "coordinates": [-60.317528, 45.709587]}, "locId": 370, "bbox": [-60.336343759334, 45.682736570138, -60.298656240666, 45.736707429862], "type": "ca.gc.nrcan.geoloc.data.model.Geoname"}, {"qualifier": "LOCATION", "title": "Gabarus Beach, Cape Breton, Nova Scotia (Conservation area)", "geometry": {"type": "Point", "coordinates": [-60.136269, 45.836952]}, "locId": 371, "bbox": [-60.1551898217912, 45.809958570138, -60.1175881782088, 45.863929429862], "type": "ca.gc.nrcan.geoloc.data.model.Geoname"}, {"qualifier": "LOCATION", "title": "Glace Bay Beach, Cape Breton, Nova Scotia (Beach)", "geometry": {"type": "Point", "coordinates": [-59.939442, 46.180702]}, "locId": 372, "bbox": [-59.9647365382721, 46.1608454417816, -59.9335974617279, 46.2058211582184], "type": "ca.gc.nrcan.geoloc.data.model.Geoname"}, {"qualifier": "LOCATION", "title": "Glace Bay Beach, Cape Breton, Nova Scotia (Conservation area)", "geometry": {"type": "Point", "coordinates": [-59.927113, 46.179268]}, "locId": 373, "bbox": [-59.9459068617655, 46.152181570138, -59.9085371382345, 46.206152429862], "type": "ca.gc.nrcan.geoloc.data.model.Geoname"}, {"geometry": {"type": "Point", "coordinates": [-59.9509574, 46.1979088]}, "locId": 374, "type": "ca.gc.nrcan.geoloc.data.model.Street", "qualifier": "INTERPOLATED_CENTROID", "title": "Beach Street, Glace Bay, Nova Scotia"}, {"geometry": {"type": "Point", "coordinates": [-59.9506935, 46.1973586]}, "locId": 375, "type": "ca.gc.nrcan.geoloc.data.model.Intersection", "qualifier": "LOCATION", "title": "Beach Street,Main Street, Glace Bay, Nova Scotia"}, {"geometry": {"type": "Point", "coordinates": [-59.95135, 46.1983887]}, "locId": 376, "type": "ca.gc.nrcan.geoloc.data.model.Intersection", "qualifier": "LOCATION", "title": "Beach Street,Lower North Street, Glace Bay, Nova Scotia"}, {"qualifier": "LOCATION", "title": "Green Bay Beach, Thunder Bay, Ontario (Beach)", "geometry": {"type": "Point", "coordinates": [-89.091812, 48.484539]}, "locId": 377, "bbox": [-89.1067154497066, 48.4620521417816, -89.0769045502934, 48.5070278582184], "type": "ca.gc.nrcan.geoloc.data.model.Geoname"}, {"qualifier": "LOCATION", "title": "Green Bay Beach, Lunenburg, Nova Scotia (Conservation area)", "geometry": {"type": "Point", "coordinates": [-64.437744, 44.210598]}, "locId": 378, "bbox": [-64.4571206748151, 44.183569570138, -64.4184353251849, 44.237540429862], "type": "ca.gc.nrcan.geoloc.data.model.Geoname"}, {"geometry": {"type": "Point", "coordinates": [-64.0585952, 45.9923331]}, "locId": 379, "type": "ca.gc.nrcan.geoloc.data.model.Street", "qualifier": "INTERPOLATED_CENTROID", "title": "Chemin Green Bay Beach Road, Westmorland, New Brunswick"}, {"geometry": {"type": "Point", "coordinates": [-115.8484337, 49.3736216]}, "locId": 380, "type": "ca.gc.nrcan.geoloc.data.model.Intersection", "qualifier": "LOCATION", "title": "Beach Road,Green Bay Road, Moyie, British Columbia"}, {"geometry": {"type": "Point", "coordinates": [-64.059281, 45.9914862]}, "locId": 381, "type": "ca.gc.nrcan.geoloc.data.model.Intersection", "qualifier": "LOCATION", "title": "Chemin Green Bay Beach Road,Route 970 Highway, Westmorland, New Brunswick"}, {"qualifier": "LOCATION", "title": "Hadley Cove Beach, Guysborough, Nova Scotia (Conservation area)", "geometry": {"type": "Point", "coordinates": [-61.476608, 45.398743]}, "locId": 382, "bbox": [-61.4956153677642, 45.371625570138, -61.4577186322358, 45.425596429862], "type": "ca.gc.nrcan.geoloc.data.model.Geoname"}, {"qualifier": "LOCATION", "title": "Half Island Beach, Guysborough, Nova Scotia (Conservation area)", "geometry": {"type": "Point", "coordinates": [-61.206322, 45.349289]}, "locId": 383, "bbox": [-61.225353941519, 45.322181570138, -61.187424058481, 45.376152429862], "type": "ca.gc.nrcan.geoloc.data.model.Geoname"}, {"qualifier": "LOCATION", "title": "Lower Half Island Cove Beach, Guysborough, Nova Scotia (Conservation area)", "geometry": {"type": "Point", "coordinates": [-61.188999, 45.351871]}, "locId": 384, "bbox": [-61.2078530110358, 45.324958570138, -61.1699249889642, 45.378929429862], "type": "ca.gc.nrcan.geoloc.data.model.Geoname"}, {"qualifier": "LOCATION", "title": "Hampton Beach, Annapolis, Nova Scotia (Conservation area)", "geometry": {"type": "Point", "coordinates": [-65.353073, 44.905151]}, "locId": 385, "bbox": [-65.3721681002327, 44.878292570138, -65.3339418997673, 44.932263429862], "type": "ca.gc.nrcan.geoloc.data.model.Geoname"}, {"geometry": {"type": "Point", "coordinates": [-96.5233634, 50.7216318]}, "locId": 386, "type": "ca.gc.nrcan.geoloc.data.model.Street", "qualifier": "INTERPOLATED_CENTROID", "title": "Hampton Road, Victoria Beach, Manitoba"}, {"geometry": {"type": "Point", "coordinates": [-124.3896643, 49.3430136]}, "locId": 387, "type": "ca.gc.nrcan.geoloc.data.model.Street", "qualifier": "INTERPOLATED_CENTROID", "title": "Hampton Place, Qualicum Beach, British Columbia"}, {"geometry": {"type": "Point", "coordinates": [-96.5200445, 50.7207926]}, "locId": 388, "type": "ca.gc.nrcan.geoloc.data.model.Intersection", "qualifier": "LOCATION", "title": "Hampton Road,Mildred Place, Victoria Beach, Manitoba"}, {"geometry": {"type": "Point", "coordinates": [-96.5186774, 50.7190455]}, "locId": 389, "type": "ca.gc.nrcan.geoloc.data.model.Intersection", "qualifier": "LOCATION", "title": "Hampton Road,Hampton's Haven, Victoria Beach, Manitoba"}, {"geometry": {"type": "Point", "coordinates": [-96.518669, 50.7202776]}, "locId": 390, "type": "ca.gc.nrcan.geoloc.data.model.Intersection", "qualifier": "LOCATION", "title": "Charles Place,Hampton Road, Victoria Beach, Manitoba"}, {"geometry": {"type": "Point", "coordinates": [-96.5212686, 50.7212234]}, "locId": 391, "type": "ca.gc.nrcan.geoloc.data.model.Intersection", "qualifier": "LOCATION", "title": "Hampton Road,Hampton's Haven, Victoria Beach, Manitoba"}, {"geometry": {"type": "Point", "coordinates": [-96.5302602, 50.7218731]}, "locId": 392, "type": "ca.gc.nrcan.geoloc.data.model.Intersection", "qualifier": "LOCATION", "title": "504 Road,Hampton Road,Olafsson Boulevard, Victoria Beach, Manitoba"}, {"geometry": {"type": "Point", "coordinates": [-124.3893363, 49.3433724]}, "locId": 393, "type": "ca.gc.nrcan.geoloc.data.model.Intersection", "qualifier": "LOCATION", "title": "Hampton Place,Ormonde Road, Qualicum Beach, British Columbia"}, {"qualifier": "LOCATION", "title": "Harrington Beach, Colchester, Nova Scotia (Conservation area)", "geometry": {"type": "Point", "coordinates": [-64.097389, 45.409363]}, "locId": 394, "bbox": [-64.11644473463, 45.382458570138, -64.07855526537, 45.436429429862], "type": "ca.gc.nrcan.geoloc.data.model.Geoname"}, {"geometry": {"type": "Point", "coordinates": [-74.5701204, 45.8804435]},